city,state_name,lat,lng
Birmingham,Alabama,33.5277,-86.7987
Huntsville,Alabama,34.6988,-86.6412
Mobile,Alabama,30.6783,-88.1162
Montgomery,Alabama,32.3473,-86.2666
Tuscaloosa,Alabama,33.2348,-87.5267
Auburn,Alabama,32.6087,-85.4899
Hoover,Alabama,33.3754,-86.8064
Florence,Alabama,34.8303,-87.6654
Anniston,Alabama,33.6712,-85.8136
Dothan,Alabama,31.2335,-85.4069
Daphne,Alabama,30.6286,-87.8866
Decatur,Alabama,34.573,-86.9906
Gadsden,Alabama,34.009,-86.0156
Madison,Alabama,34.7114,-86.7626
Enterprise,Alabama,31.3276,-85.8459
Albertville,Alabama,34.2634,-86.2107
Foley,Alabama,30.3983,-87.6649
Phenix City,Alabama,32.4588,-85.0251
Prattville,Alabama,32.4605,-86.4588
Vestavia Hills,Alabama,33.4518,-86.7438
Alabaster,Alabama,33.2198,-86.8225
Athens,Alabama,34.7847,-86.951
Opelika,Alabama,32.6612,-85.3769
Bessemer,Alabama,33.3709,-86.9713
Northport,Alabama,33.2589,-87.5984
Homewood,Alabama,33.4617,-86.8092
Pelham,Alabama,33.3114,-86.7573
Fairhope,Alabama,30.5217,-87.8815
Trussville,Alabama,33.6404,-86.5819
Prichard,Alabama,30.7735,-88.1301
Oxford,Alabama,33.5967,-85.8687
Mountain Brook,Alabama,33.4871,-86.74
Valley,Alabama,32.8088,-85.1809
Helena,Alabama,33.2845,-86.8756
Cullman,Alabama,34.1777,-86.8407
Selma,Alabama,32.4166,-87.0336
Troy,Alabama,31.8021,-85.9665
Tillmans Corner,Alabama,30.5818,-88.2128
Sylacauga,Alabama,33.1778,-86.2606
Center Point,Alabama,33.6446,-86.6851
Millbrook,Alabama,32.5028,-86.3737
Talladega,Alabama,33.4329,-86.0976
Hueytown,Alabama,33.4237,-87.022
Calera,Alabama,33.1249,-86.745
Saraland,Alabama,30.8478,-88.1004
Muscle Shoals,Alabama,34.7436,-87.6344
Hartselle,Alabama,34.4391,-86.94
Scottsboro,Alabama,34.6438,-86.0491
Alexander City,Alabama,32.9242,-85.9361
Ozark,Alabama,31.4508,-85.6473
Gardendale,Alabama,33.6678,-86.8069
Chelsea,Alabama,33.3255,-86.6299
Fort Payne,Alabama,34.4557,-85.6965
Pell City,Alabama,33.5609,-86.2669
Jasper,Alabama,33.8503,-87.2708
Moody,Alabama,33.5986,-86.4963
Irondale,Alabama,33.544,-86.6599
Gulf Shores,Alabama,30.2759,-87.7013
Jacksonville,Alabama,33.8088,-85.7545
Leeds,Alabama,33.5429,-86.5636
Eufaula,Alabama,31.9102,-85.1505
Saks,Alabama,33.7118,-85.8536
Fairfield,Alabama,33.4747,-86.9194
Pike Road,Alabama,32.2934,-86.0902
Clay,Alabama,33.6976,-86.607
Robertsdale,Alabama,30.5534,-87.7023
Russellville,Alabama,34.5056,-87.7282
Boaz,Alabama,34.1985,-86.1529
Rainbow City,Alabama,33.9337,-86.0922
Pleasant Grove,Alabama,33.4936,-86.9782
Meadowbrook,Alabama,33.3932,-86.7041
Bay Minette,Alabama,30.893,-87.7912
Fultondale,Alabama,33.6177,-86.8015
Spanish Fort,Alabama,30.7257,-87.8601
Atmore,Alabama,31.0927,-87.4763
Forestdale,Alabama,33.5737,-86.9002
Southside,Alabama,33.9007,-86.0238
Sheffield,Alabama,34.757,-87.6977
Clanton,Alabama,32.844,-86.623
Andalusia,Alabama,31.3101,-86.4781
Guntersville,Alabama,34.367,-86.2638
Wetumpka,Alabama,32.5407,-86.2052
Tuscumbia,Alabama,34.7204,-87.7035
Arab,Alabama,34.3309,-86.4991
Tuskegee,Alabama,32.4395,-85.7139
Greenville,Alabama,31.8437,-86.6379
Brook Highland,Alabama,33.4359,-86.6849
Pinson,Alabama,33.7057,-86.6674
Meridianville,Alabama,34.8729,-86.5722
Moores Mill,Alabama,34.8491,-86.5222
Lincoln,Alabama,33.5935,-86.1371
Montevallo,Alabama,33.1246,-86.8476
Brewton,Alabama,31.1111,-87.0737
Demopolis,Alabama,32.498,-87.8298
Hamilton,Alabama,34.1346,-87.9755
Oneonta,Alabama,33.9392,-86.4929
Opp,Alabama,31.2848,-86.257
Theodore,Alabama,30.5408,-88.1884
Orange Beach,Alabama,30.2941,-87.5851
Grayson Valley,Alabama,33.6469,-86.6414
Satsuma,Alabama,30.8577,-88.0632
Lanett,Alabama,32.8571,-85.2081
Tarrant,Alabama,33.5945,-86.7684
Roanoke,Alabama,33.1454,-85.3694
Harvest,Alabama,34.8558,-86.7521
Attalla,Alabama,34.0049,-86.104
Monroeville,Alabama,31.5162,-87.3279
Chickasaw,Alabama,30.7714,-88.0793
Semmes,Alabama,30.7941,-88.2358
Highland Lakes,Alabama,33.397,-86.6497
Smiths Station,Alabama,32.5284,-85.096
Fort Rucker,Alabama,31.3428,-85.7154
Brent,Alabama,32.9421,-87.1753
Margaret,Alabama,33.6735,-86.468
Rainsville,Alabama,34.4939,-85.8435
Daleville,Alabama,31.2915,-85.7117
Glencoe,Alabama,33.9449,-85.9319
Midfield,Alabama,33.4552,-86.9226
Childersburg,Alabama,33.2961,-86.3457
Headland,Alabama,31.3501,-85.3523
Lake View,Alabama,33.2802,-87.1258
Jackson,Alabama,31.5318,-87.8915
Columbiana,Alabama,33.193,-86.6115
Union Springs,Alabama,32.1395,-85.7141
Piedmont,Alabama,33.9268,-85.6148
Winfield,Alabama,33.9334,-87.7962
Tallassee,Alabama,32.5314,-85.8902
Pine Level,Alabama,32.5797,-86.4529
Holtville,Alabama,32.6314,-86.3268
Redland,Alabama,32.4754,-86.1375
Mount Olive,Alabama,33.6778,-86.8726
Argo,Alabama,33.6961,-86.5066
Springville,Alabama,33.7643,-86.4749
Priceville,Alabama,34.5247,-86.8855
Geneva,Alabama,31.0437,-85.8763
Adamsville,Alabama,33.6063,-86.9745
Fayette,Alabama,33.6943,-87.8307
Hokes Bluff,Alabama,33.9902,-85.8639
Woodstock,Alabama,33.2193,-87.1489
Haleyville,Alabama,34.2331,-87.6175
Alexandria,Alabama,33.7675,-85.8792
Holt,Alabama,33.2302,-87.4827
Hazel Green,Alabama,34.9237,-86.5671
Grand Bay,Alabama,30.4717,-88.345
Odenville,Alabama,33.6987,-86.4225
Citronelle,Alabama,31.0952,-88.2468
Thomasville,Alabama,31.9111,-87.7419
Elba,Alabama,31.4172,-86.0759
Centre,Alabama,34.1551,-85.6699
Sumiton,Alabama,33.7503,-87.0483
Kimberly,Alabama,33.776,-86.7968
Valley Grande,Alabama,32.4862,-87.0305
Evergreen,Alabama,31.4342,-86.9723
Emerald Mountain,Alabama,32.4396,-86.0857
Hanceville,Alabama,34.0634,-86.7651
Heflin,Alabama,33.6471,-85.5698
Ladonia,Alabama,32.4609,-85.0877
Kinsey,Alabama,31.2926,-85.3353
West End-Cobb Town,Alabama,33.6526,-85.8742
Livingston,Alabama,32.5982,-88.1891
Moulton,Alabama,34.4843,-87.2831
Warrior,Alabama,33.8153,-86.8153
Underwood-Petersville,Alabama,34.877,-87.6975
Cottondale,Alabama,33.1922,-87.4544
Marion,Alabama,32.6318,-87.3172
Red Bay,Alabama,34.4358,-88.1362
Weaver,Alabama,33.7602,-85.8117
Dadeville,Alabama,32.8326,-85.7675
Loxley,Alabama,30.6813,-87.7418
Choccolocco,Alabama,33.6683,-85.7129
New Hope,Alabama,34.537,-86.4128
La Fayette,Alabama,32.8997,-85.4007
Clayton,Alabama,31.8822,-85.4604
Brighton,Alabama,33.4393,-86.9454
Luverne,Alabama,31.7186,-86.2687
Jemison,Alabama,32.9696,-86.7339
Point Clear,Alabama,30.4902,-87.9105
Moundville,Alabama,32.9968,-87.6272
Centreville,Alabama,32.9597,-87.1334
Eutaw,Alabama,32.8436,-87.8987
Whitesboro,Alabama,34.1682,-86.0572
Huguley,Alabama,32.8431,-85.2397
Hartford,Alabama,31.1055,-85.6916
Carlisle-Rockledge,Alabama,34.114,-86.1191
Abbeville,Alabama,31.5664,-85.2528
Indian Springs Village,Alabama,33.3591,-86.7493
Bayou La Batre,Alabama,30.4126,-88.261
Trinity,Alabama,34.6012,-87.0818
Taylor,Alabama,31.1658,-85.4697
Riverside,Alabama,33.6171,-86.2042
Ashville,Alabama,33.8331,-86.2698
Henagar,Alabama,34.631,-85.7405
Good Hope,Alabama,34.1098,-86.8651
Midland City,Alabama,31.3157,-85.4937
East Brewton,Alabama,31.0906,-87.0556
Bridgeport,Alabama,34.9495,-85.7243
Guin,Alabama,33.9832,-87.9023
Greensboro,Alabama,32.7014,-87.595
Aliceville,Alabama,33.1237,-88.1594
Lineville,Alabama,33.313,-85.7508
York,Alabama,32.4998,-88.2938
Uniontown,Alabama,32.449,-87.4958
Vincent,Alabama,33.3848,-86.4086
Ashford,Alabama,31.1858,-85.2359
Morris,Alabama,33.7467,-86.8037
Lipscomb,Alabama,33.4261,-86.926
Owens Cross Roads,Alabama,34.5845,-86.4574
Smoke Rise,Alabama,33.8789,-86.824
Graysville,Alabama,33.6583,-86.9674
Cowarts,Alabama,31.2041,-85.3062
Thorsby,Alabama,32.917,-86.7203
Wilsonville,Alabama,33.2351,-86.4882
Creola,Alabama,30.8903,-88.01
Collinsville,Alabama,34.267,-85.8652
Level Plains,Alabama,31.3071,-85.7687
Stevenson,Alabama,34.8487,-85.8437
Florala,Alabama,31.0176,-86.3138
Dora,Alabama,33.7292,-87.085
Brundidge,Alabama,31.7182,-85.8177
Slocomb,Alabama,31.1103,-85.5954
Ashland,Alabama,33.2704,-85.8337
Sylvania,Alabama,34.5619,-85.8046
Carbon Hill,Alabama,33.8944,-87.5224
Lookout Mountain,Alabama,34.1091,-85.9585
Linden,Alabama,32.3001,-87.7926
Crossville,Alabama,34.2853,-85.9997
Samson,Alabama,31.1124,-86.0462
Vernon,Alabama,33.7588,-88.1143
Cordova,Alabama,33.7613,-87.1925
Brookwood,Alabama,33.2397,-87.3277
Sulligent,Alabama,33.8912,-88.1266
Cedar Bluff,Alabama,34.2217,-85.5877
Selmont-West Selmont,Alabama,32.3784,-87.0074
Sardis City,Alabama,34.1749,-86.1125
Camden,Alabama,32.0007,-87.2967
Elberta,Alabama,30.3855,-87.5888
Grove Hill,Alabama,31.7006,-87.7748
Lillian,Alabama,30.4122,-87.432
Harpersville,Alabama,33.3184,-86.4287
Westover,Alabama,33.3685,-86.5346
Ragland,Alabama,33.7469,-86.1384
Butler,Alabama,32.0965,-88.2108
Summerdale,Alabama,30.4783,-87.6904
Blountsville,Alabama,34.0814,-86.5867
Coaling,Alabama,33.1641,-87.3534
Rehobeth,Alabama,31.1242,-85.4382
Vance,Alabama,33.1745,-87.2313
Stewartville,Alabama,33.0725,-86.2658
Marbury,Alabama,32.6793,-86.4607
Concord,Alabama,33.4674,-87.0392
Gordo,Alabama,33.322,-87.904
Georgiana,Alabama,31.6391,-86.7468
Ballplay,Alabama,34.0179,-85.7853
Reform,Alabama,33.3788,-88.0173
Rock Creek,Alabama,33.4772,-87.0812
Mount Vernon,Alabama,31.0889,-88.0137
Sylvan Springs,Alabama,33.5287,-87.0312
Blue Ridge,Alabama,32.501,-86.1839
Webb,Alabama,31.2572,-85.2896
Ardmore,Alabama,34.9847,-86.8373
Malvern,Alabama,31.1428,-85.521
Newton,Alabama,31.3423,-85.5893
Stapleton,Alabama,30.7394,-87.7943
Flomaton,Alabama,31.0127,-87.2541
Fayetteville,Alabama,33.1643,-86.4411
Shoal Creek,Alabama,33.4328,-86.6071
Coats Bend,Alabama,34.0774,-85.8742
Elmore,Alabama,32.5552,-86.3425
Munford,Alabama,33.5259,-85.9554
Hayden,Alabama,33.8822,-86.7839
Dauphin Island,Alabama,30.2525,-88.1438
Redstone Arsenal,Alabama,34.6843,-86.647
Brookside,Alabama,33.638,-86.9014
Goodwater,Alabama,33.0608,-86.0516
Cleveland,Alabama,33.9965,-86.5671
Coosada,Alabama,32.4983,-86.3279
Clio,Alabama,31.7085,-85.6109
New Brockton,Alabama,31.3784,-85.9228
Hackleburg,Alabama,34.2693,-87.8303
Falkville,Alabama,34.3793,-86.9086
Cottonwood,Alabama,31.0552,-85.3007
West Blocton,Alabama,33.1186,-87.1253
Rogersville,Alabama,34.8251,-87.2821
Deatsville,Alabama,32.5863,-86.3918
Bon Secour,Alabama,30.3222,-87.7271
Tidmore Bend,Alabama,34.0324,-85.9254
Locust Fork,Alabama,33.8957,-86.6301
Chatom,Alabama,31.4691,-88.246
Axis,Alabama,30.9296,-88.0179
Silverhill,Alabama,30.5455,-87.7505
Fort Deposit,Alabama,31.9863,-86.5664
Frisco City,Alabama,31.4353,-87.4037
Ohatchee,Alabama,33.7877,-86.028
New Market,Alabama,34.8892,-86.4226
Berry,Alabama,33.6623,-87.6079
Steele,Alabama,33.937,-86.2004
Phil Campbell,Alabama,34.3519,-87.7062
Bear Creek,Alabama,34.2651,-87.7164
Double Springs,Alabama,34.1502,-87.3912
Fyffe,Alabama,34.4496,-85.9049
Town Creek,Alabama,34.6718,-87.4063
Egypt,Alabama,34.0759,-86.1651
Leesburg,Alabama,34.1839,-85.775
Eclectic,Alabama,32.6387,-86.0386
Cherokee,Alabama,34.7577,-87.967
Littleville,Alabama,34.5951,-87.6719
Hollywood,Alabama,34.719,-85.965
Millport,Alabama,33.5586,-88.0817
Sterrett,Alabama,33.449,-86.4645
Powell,Alabama,34.5325,-85.8979
Leroy,Alabama,31.4952,-87.969
Coker,Alabama,33.2446,-87.6799
Dunnavant,Alabama,33.5006,-86.538
Killen,Alabama,34.8607,-87.5269
Camp Hill,Alabama,32.8002,-85.6536
Vandiver,Alabama,33.4601,-86.5251
Triana,Alabama,34.5904,-86.7418
Carrollton,Alabama,33.2619,-88.0951
Parrish,Alabama,33.7323,-87.2802
Grant,Alabama,34.5189,-86.2492
Altoona,Alabama,34.031,-86.3181
Geraldine,Alabama,34.3577,-86.0037
Ivalee,Alabama,34.0372,-86.1472
Shelby,Alabama,33.1068,-86.5825
Mosses,Alabama,32.1801,-86.6888
Brilliant,Alabama,34.0256,-87.7691
Autaugaville,Alabama,32.432,-86.6579
Brantleyville,Alabama,33.2196,-86.882
Pine Hill,Alabama,31.9858,-87.5875
White Plains,Alabama,33.7603,-85.688
Mignon,Alabama,33.1948,-86.2651
Minor,Alabama,33.5389,-86.9402
Snead,Alabama,34.1162,-86.3901
Skyline,Alabama,34.7987,-86.1229
Gallant,Alabama,34.0013,-86.2304
New Union,Alabama,34.1422,-86.2218
Jacksons' Gap,Alabama,32.8831,-85.815
Holly Pond,Alabama,34.1696,-86.6125
Magnolia Springs,Alabama,30.4003,-87.7748
Notasulga,Alabama,32.5569,-85.6695
Gurley,Alabama,34.7072,-86.3768
Mulga,Alabama,33.5534,-86.9735
Hollins,Alabama,33.1213,-86.129
Perdido,Alabama,31.0033,-87.6324
Wedowee,Alabama,33.3077,-85.4864
Hayneville,Alabama,32.1822,-86.5787
Douglas,Alabama,34.1705,-86.3224
Susan Moore,Alabama,34.0799,-86.4234
Somerville,Alabama,34.4676,-86.7935
Brantley,Alabama,31.5822,-86.2569
New Site,Alabama,33.0283,-85.7801
Leighton,Alabama,34.6941,-87.5282
Hobson City,Alabama,33.6148,-85.8561
White Hall,Alabama,32.2993,-86.7148
South Vinemont,Alabama,34.2348,-86.8642
Section,Alabama,34.5816,-85.9849
Ariton,Alabama,31.5978,-85.7131
Edgewater,Alabama,33.5286,-86.9574
Columbia,Alabama,31.2968,-85.1103
Oakman,Alabama,33.7141,-87.389
Woodville,Alabama,34.6256,-86.2792
Addison,Alabama,34.2017,-87.1765
Ider,Alabama,34.7022,-85.6691
Wadley,Alabama,33.1239,-85.5683
Lexington,Alabama,34.9652,-87.3735
Walnut Grove,Alabama,34.0641,-86.2863
Maplesville,Alabama,32.7867,-86.8783
Pisgah,Alabama,34.6844,-85.846
Our Town,Alabama,32.8304,-85.9687
Wilton,Alabama,33.0813,-86.8799
Hollis Crossroads,Alabama,33.5231,-85.6437
St. Florian,Alabama,34.8714,-87.6224
Bristow Cove,Alabama,34.1092,-86.241
Joppa,Alabama,34.2982,-86.5506
Allgood,Alabama,33.9064,-86.5178
Perdido Beach,Alabama,30.3554,-87.5036
Lynn,Alabama,34.0548,-87.5555
Excel,Alabama,31.4264,-87.3433
Pinckard,Alabama,31.3173,-85.543
Reece City,Alabama,34.0772,-86.0345
Stockton,Alabama,30.9946,-87.86
Dodge City,Alabama,34.0453,-86.8837
North Courtland,Alabama,34.6788,-87.3083
Baileyton,Alabama,34.2609,-86.6082
Trafford,Alabama,33.8194,-86.7467
West Point,Alabama,34.2401,-86.9626
Calvert,Alabama,31.154,-88.0169
Babbie,Alabama,31.3022,-86.3229
Hurtsboro,Alabama,32.2401,-85.4147
Courtland,Alabama,34.6703,-87.3262
Forkland,Alabama,32.6489,-87.8671
Clayhatchee,Alabama,31.2434,-85.7136
Pickensville,Alabama,33.2336,-88.2743
McDonald Chapel,Alabama,33.5189,-86.9385
Sand Rock,Alabama,34.2308,-85.7712
Belle Fontaine,Alabama,30.492,-88.1131
Grimes,Alabama,31.2999,-85.4502
Valley Head,Alabama,34.5575,-85.6214
Kinston,Alabama,31.22,-86.1705
Castleberry,Alabama,31.3001,-87.027
River Falls,Alabama,31.3524,-86.5412
Oak Grove,Alabama,33.1928,-86.3036
Hillsboro,Alabama,34.6408,-87.1837
Newville,Alabama,31.4206,-85.3367
Franklin,Alabama,32.4514,-85.7864
Elkmont,Alabama,34.9289,-86.9765
Avon,Alabama,31.1799,-85.2802
Lockhart,Alabama,31.0128,-86.3505
Garden City,Alabama,34.0152,-86.752
Eva,Alabama,34.3274,-86.7614
Millry,Alabama,31.6256,-88.3191
Hammondville,Alabama,34.5685,-85.6397
Rock Mills,Alabama,33.1563,-85.2861
Lisman,Alabama,32.1792,-88.3002
McKenzie,Alabama,31.5428,-86.7246
Glen Allen,Alabama,33.8922,-87.7328
Red Level,Alabama,31.4055,-86.6084
Nances Creek,Alabama,33.8588,-85.6733
Midway,Alabama,32.0764,-85.5244
Bellamy,Alabama,32.4582,-88.1277
Fairview,Alabama,34.2477,-86.6843
Louisville,Alabama,31.781,-85.5583
Berlin,Alabama,34.1868,-86.7442
Rutledge,Alabama,31.724,-86.302
St. Stephens,Alabama,31.5474,-88.0555
Rockford,Alabama,32.8896,-86.215
Silas,Alabama,31.7678,-88.3258
Hytop,Alabama,34.8965,-86.088
Kennedy,Alabama,33.5809,-87.9862
West Jefferson,Alabama,33.652,-87.0569
Hackneyville,Alabama,33.0567,-85.9312
Hissop,Alabama,32.8746,-86.1159
Highland Lake,Alabama,33.8876,-86.4244
Pleasant Groves,Alabama,34.735,-86.2054
Sipsey,Alabama,33.8225,-87.0834
Ranburne,Alabama,33.5259,-85.339
Shorter,Alabama,32.4076,-85.9412
Twin,Alabama,33.9978,-87.8497
Vinegar Bend,Alabama,31.2594,-88.3712
Thomaston,Alabama,32.2683,-87.6237
Maytown,Alabama,33.5489,-86.9999
Mentone,Alabama,34.5663,-85.5842
Vina,Alabama,34.3757,-88.0602
Malcolm,Alabama,31.1945,-88.0016
Arley,Alabama,34.0886,-87.2074
Napier Field,Alabama,31.3149,-85.4549
Nectar,Alabama,33.9686,-86.6346
Epes,Alabama,32.6906,-88.1405
Akron,Alabama,32.8785,-87.7429
Gordon,Alabama,31.1436,-85.0925
Coffeeville,Alabama,31.7666,-88.0861
Dozier,Alabama,31.5031,-86.3694
Rosa,Alabama,33.9885,-86.5037
Uriah,Alabama,31.3073,-87.4992
Dutton,Alabama,34.6062,-85.9119
Ray,Alabama,32.879,-86.035
Weogufka,Alabama,33.0267,-86.3169
Carolina,Alabama,31.2337,-86.5227
Cuba,Alabama,32.441,-88.3755
Vredenburgh,Alabama,31.8237,-87.3178
Madrid,Alabama,31.0356,-85.3992
Colony,Alabama,33.9413,-86.9016
Pine Ridge,Alabama,34.449,-85.7808
Hodges,Alabama,34.334,-87.9299
Delta,Alabama,33.447,-85.6746
Shiloh,Alabama,34.4638,-85.878
Fruithurst,Alabama,33.7297,-85.4312
Whatley,Alabama,31.6463,-87.7108
Boligee,Alabama,32.7699,-88.0264
Gordonville,Alabama,32.1489,-86.6994
Beatrice,Alabama,31.7332,-87.209
Reeltown,Alabama,32.5788,-85.8189
Waldo,Alabama,33.3892,-86.036
Boykin,Alabama,32.0701,-87.2914
Anderson,Alabama,34.9147,-87.2716
County Line,Alabama,33.821,-86.7198
Langston,Alabama,34.5374,-86.0899
Gulfcrest,Alabama,30.9925,-88.2399
East Point,Alabama,34.1859,-86.7927
Repton,Alabama,31.4097,-87.2393
Heath,Alabama,31.3579,-86.4673
Goshen,Alabama,31.7182,-86.1242
Morrison Crossroads,Alabama,33.4198,-85.4903
Sanford,Alabama,31.3006,-86.3975
Bakerhill,Alabama,31.7769,-85.2955
Fulton,Alabama,31.7916,-87.7397
Sweet Water,Alabama,32.1046,-87.8619
Cullomburg,Alabama,31.7131,-88.2917
Fredonia,Alabama,32.9861,-85.2912
Horn Hill,Alabama,31.2382,-86.3211
Chunchula,Alabama,30.9237,-88.2072
Detroit,Alabama,34.0274,-88.1678
Gantt,Alabama,31.4092,-86.4842
McIntosh,Alabama,31.2649,-88.0284
Coffee Springs,Alabama,31.1664,-85.9102
Kansas,Alabama,33.9029,-87.5568
Daviston,Alabama,33.0556,-85.6371
Union,Alabama,32.9938,-87.9071
Pennington,Alabama,32.1994,-88.0494
Belk,Alabama,33.6516,-87.9286
Black,Alabama,31.0102,-85.7428
Nauvoo,Alabama,33.9873,-87.4876
Yellow Bluff,Alabama,31.9622,-87.4808
Macedonia,Alabama,33.4031,-88.2392
Kellyton,Alabama,32.9791,-86.0358
Loachapoka,Alabama,32.6049,-85.5948
Paint Rock,Alabama,34.6602,-86.3307
Waterloo,Alabama,34.9173,-88.0654
Providence,Alabama,32.3424,-87.7762
Edwardsville,Alabama,33.8411,-85.4523
Gilbertown,Alabama,31.8758,-88.3195
Eunola,Alabama,31.0326,-85.8409
Beaverton,Alabama,33.9354,-88.0218
Spring Garden,Alabama,33.973,-85.5558
Millerville,Alabama,33.1926,-85.9303
Onycha,Alabama,31.2246,-86.2785
Gainesville,Alabama,32.8149,-88.1608
Glenwood,Alabama,31.6675,-86.173
Woodland,Alabama,33.3756,-85.3975
Riverview,Alabama,31.0587,-87.0709
Spruce Pine,Alabama,34.3928,-87.7294
Abanda,Alabama,33.0926,-85.5253
Broomtown,Alabama,34.3657,-85.5322
Gu-Win,Alabama,33.9443,-87.8704
Newbern,Alabama,32.592,-87.5331
Standing Rock,Alabama,33.0863,-85.2449
Orrville,Alabama,32.3068,-87.2454
Banks,Alabama,31.8132,-85.8364
Talladega Springs,Alabama,33.1191,-86.4421
Hobson,Alabama,31.4836,-88.1513
Geiger,Alabama,32.8698,-88.313
Peterman,Alabama,31.5837,-87.2631
North Johns,Alabama,33.368,-87.1008
Waverly,Alabama,32.7333,-85.5761
Five Points,Alabama,33.0173,-85.3516
Billingsley,Alabama,32.661,-86.7087
Gaylesville,Alabama,34.2681,-85.5586
Pollard,Alabama,31.0236,-87.1736
Pine Apple,Alabama,31.8721,-86.9891
Lester,Alabama,34.9877,-87.1515
Deer Park,Alabama,31.2198,-88.3226
Cusseta,Alabama,32.7877,-85.3057
Toxey,Alabama,31.9107,-88.3091
Eldridge,Alabama,33.922,-87.6201
Myrtlewood,Alabama,32.2521,-87.9492
Libertyville,Alabama,31.2428,-86.46
Ridgeville,Alabama,34.0569,-86.1029
Fairford,Alabama,31.178,-88.0728
Bon Air,Alabama,33.2621,-86.3319
Fruitdale,Alabama,31.3429,-88.4109
Haleburg,Alabama,31.4099,-85.1381
Penton,Alabama,33.009,-85.4722
Lowndesboro,Alabama,32.2764,-86.6108
Faunsdale,Alabama,32.4576,-87.5938
Blue Springs,Alabama,31.6635,-85.5035
Movico,Alabama,31.0628,-88.0266
Needham,Alabama,31.987,-88.3366
Tibbie,Alabama,31.3628,-88.2471
Union Grove,Alabama,34.4025,-86.4483
Ethelsville,Alabama,33.4141,-88.2161
Hatton,Alabama,34.561,-87.4136
Mooresville,Alabama,34.627,-86.8799
Petrey,Alabama,31.8495,-86.2057
Cardiff,Alabama,33.6472,-86.9307
Goldville,Alabama,33.0841,-85.7831
Emelle,Alabama,32.7287,-88.3165
Dayton,Alabama,32.3509,-87.6416
Graham,Alabama,33.4552,-85.3231
Putnam,Alabama,32.0181,-88.0331
Benton,Alabama,32.3078,-86.818
Panola,Alabama,32.9478,-88.2674
Natural Bridge,Alabama,34.0904,-87.6014
Belgreen,Alabama,34.4767,-87.8653
Carlton,Alabama,31.343,-87.8378
Nanafalia,Alabama,32.1114,-87.9957
Memphis,Alabama,33.1369,-88.3008
Oak Hill,Alabama,31.9216,-87.0852
Megargel,Alabama,31.3781,-87.4307
Bucks,Alabama,31.017,-88.0249
Rockville,Alabama,31.4059,-87.8442
McMullen,Alabama,33.1481,-88.1757
Anchorage,Alaska,61.1508,-149.1091
Fairbanks,Alaska,64.8353,-147.6534
Juneau,Alaska,58.4546,-134.1739
Badger,Alaska,64.8006,-147.3877
Knik-Fairview,Alaska,61.4964,-149.6535
College,Alaska,64.8694,-147.8217
Wasilla,Alaska,61.577,-149.466
Ketchikan,Alaska,55.3556,-131.6698
Tanaina,Alaska,61.656,-149.4272
Kodiak,Alaska,57.7934,-152.406
Kalifornsky,Alaska,60.4417,-151.1972
Sitka,Alaska,57.2401,-135.3153
Meadow Lakes,Alaska,61.638,-149.608
Kenai,Alaska,60.5619,-151.1985
Steele Creek,Alaska,64.9295,-147.3955
Palmer,Alaska,61.5971,-149.1147
Soldotna,Alaska,60.4862,-151.0672
Gateway,Alaska,61.5737,-149.2389
Fishhook,Alaska,61.711,-149.2657
Bethel,Alaska,60.7928,-161.7917
Chena Ridge,Alaska,64.7941,-148.0357
Homer,Alaska,59.653,-151.5255
Farmers Loop,Alaska,64.9061,-147.6957
Sterling,Alaska,60.5405,-150.8089
Utqiagvik,Alaska,71.2728,-156.7575
Unalaska,Alaska,53.8984,-166.568
Nikiski,Alaska,60.7152,-151.2317
Butte,Alaska,61.5539,-149.0035
Nome,Alaska,64.5213,-165.4053
Valdez,Alaska,61.0963,-146.2596
Goldstream,Alaska,64.9339,-148.0083
Kotzebue,Alaska,66.8766,-162.5231
Eielson AFB,Alaska,64.6741,-147.0605
Petersburg,Alaska,56.7566,-132.8727
Seward,Alaska,60.1124,-149.3925
Ridgeway,Alaska,60.5305,-151.0301
Big Lake,Alaska,61.526,-149.972
Wrangell,Alaska,56.3317,-132.0223
Deltana,Alaska,63.8724,-145.2158
Houston,Alaska,61.6159,-149.8003
Dillingham,Alaska,59.055,-158.5379
Cordova,Alaska,60.5348,-145.6092
Anchor Point,Alaska,59.7703,-151.7052
North Pole,Alaska,64.753,-147.36
Fritz Creek,Alaska,59.747,-151.2884
Willow,Alaska,61.8157,-149.753
Haines,Alaska,59.2417,-135.4549
Prudhoe Bay,Alaska,70.3128,-148.6955
Metlakatla,Alaska,55.1182,-131.5689
Lazy Mountain,Alaska,61.6516,-148.902
Ester,Alaska,64.8646,-148.0916
Kodiak Station,Alaska,57.7451,-152.5443
Sutton-Alpine,Alaska,61.7429,-148.8542
Funny River,Alaska,60.4873,-150.7808
Tok,Alaska,63.329,-143.0379
Point MacKenzie,Alaska,61.3463,-150.0787
Craig,Alaska,55.4913,-133.1165
Diamond Ridge,Alaska,59.7024,-151.5545
Talkeetna,Alaska,62.2753,-150.0814
Hooper Bay,Alaska,61.5262,-166.1146
Cohoe,Alaska,60.2681,-151.2843
Bear Creek,Alaska,60.2071,-149.3524
Farm Loop,Alaska,61.6394,-149.1471
Chevak,Alaska,61.5295,-165.5943
Susitna North,Alaska,62.1281,-149.8593
Sand Point,Alaska,55.3227,-160.4834
Skagway,Alaska,59.4566,-135.2927
Akutan,Alaska,54.1594,-165.7328
Salcha,Alaska,64.5272,-146.904
King Cove,Alaska,55.0858,-162.2978
Salamatof,Alaska,60.6154,-151.3159
Buffalo Soapstone,Alaska,61.7073,-149.1095
Healy,Alaska,63.9454,-149.0152
Delta Junction,Alaska,64.0604,-145.7058
Womens Bay,Alaska,57.696,-152.6276
Mountain Village,Alaska,62.0911,-163.7209
Denali Park,Alaska,63.5909,-148.7107
Knik River,Alaska,61.4606,-148.9155
Togiak,Alaska,59.0693,-160.4727
Selawik,Alaska,66.5988,-159.9995
Ninilchik,Alaska,60.0745,-151.3843
Emmonak,Alaska,62.7762,-164.5157
Moose Creek,Alaska,64.714,-147.1639
Hoonah,Alaska,58.1118,-135.4246
Klawock,Alaska,55.5556,-133.0868
Alakanuk,Alaska,62.6902,-164.6305
Kwethluk,Alaska,60.7978,-161.4147
Kasilof,Alaska,60.331,-151.2293
Point Hope,Alaska,68.3445,-166.6738
Quinhagak,Alaska,59.7511,-161.8993
Savoonga,Alaska,63.6797,-170.4831
Gambell,Alaska,63.7538,-171.6881
Unalakleet,Alaska,63.8922,-160.786
Noorvik,Alaska,66.8292,-161.0376
Tuntutuliak,Alaska,60.3843,-162.6838
Toksook Bay,Alaska,60.5333,-165.1557
Two Rivers,Alaska,64.8908,-147.0898
Yakutat,Alaska,59.567,-139.5966
Kotlik,Alaska,63.0305,-163.553
Pilot Station,Alaska,61.9422,-162.8828
Pleasant Valley,Alaska,64.8855,-146.8986
Shishmaref,Alaska,66.2372,-166.1027
Happy Valley,Alaska,59.9137,-151.6072
Wainwright,Alaska,70.638,-159.9713
Stebbins,Alaska,63.4706,-162.2597
Akiachak,Alaska,60.9209,-161.402
St. Mary's,Alaska,62.0718,-163.2805
Big Delta,Alaska,64.1486,-145.7453
Aniak,Alaska,61.5817,-159.5451
Kake,Alaska,56.9727,-133.9145
Kasigluk,Alaska,60.8785,-162.5272
Scammon Bay,Alaska,61.842,-165.5833
Fort Yukon,Alaska,66.5806,-145.2415
Nunapitchuk,Alaska,60.8772,-162.4615
Fox River,Alaska,59.8723,-150.9984
Kipnuk,Alaska,59.9373,-164.0616
New Stuyahok,Alaska,59.4762,-157.271
South Van Horn,Alaska,64.8091,-147.7855
Kachemak,Alaska,59.6745,-151.4364
St. Paul,Alaska,57.1815,-170.2743
Cooper Landing,Alaska,60.4945,-149.841
Chefornak,Alaska,60.155,-164.255
Naknek,Alaska,58.7847,-156.8967
Thorne Bay,Alaska,55.6652,-132.5337
Marshall,Alaska,61.8753,-162.0488
Angoon,Alaska,57.455,-134.4978
Galena,Alaska,64.7381,-156.8635
Fox,Alaska,64.9749,-147.609
Gustavus,Alaska,58.4275,-135.7492
Manokotak,Alaska,58.893,-158.9109
Kongiganak,Alaska,59.958,-162.8831
Nuiqsut,Alaska,70.2135,-150.9897
Buckland,Alaska,65.9784,-161.1341
Noatak,Alaska,67.5987,-163.0309
St. Michael,Alaska,63.4664,-162.1324
Glennallen,Alaska,62.1278,-145.7693
Napaskiak,Alaska,60.7018,-161.7616
Brevig Mission,Alaska,65.3413,-166.4953
Tununak,Alaska,60.579,-165.2077
Kwigillingok,Alaska,59.8767,-163.1717
Tyonek,Alaska,61.0734,-151.3331
Akiak,Alaska,60.9061,-161.2122
Saxman,Alaska,55.3232,-131.589
Hydaburg,Alaska,55.2061,-132.8208
Kivalina,Alaska,67.733,-164.5212
Tazlina,Alaska,62.0536,-145.4362
Napakiak,Alaska,60.6923,-161.9822
Koyuk,Alaska,64.9411,-161.1454
King Salmon,Alaska,58.753,-156.5061
Trapper Creek,Alaska,62.3189,-150.3965
Nenana,Alaska,64.5384,-149.0859
Russian Mission,Alaska,61.7825,-161.3567
Anaktuvuk Pass,Alaska,68.15,-151.7162
Elim,Alaska,64.6184,-162.2762
Anderson,Alaska,64.3074,-149.1562
Kiana,Alaska,66.9726,-160.4344
Adak,Alaska,51.8815,-176.6295
Tuluksak,Alaska,61.105,-160.9493
Nightmute,Alaska,60.4874,-164.8195
McGrath,Alaska,62.9424,-155.563
Eek,Alaska,60.2164,-162.0331
Newtok,Alaska,60.9341,-164.6385
Moose Pass,Alaska,60.4997,-149.4464
Lower Kalskag,Alaska,61.5163,-160.3556
Goodnews Bay,Alaska,59.1271,-161.5754
Seldovia,Alaska,59.4396,-151.7111
Mentasta Lake,Alaska,62.9867,-143.5191
Shungnak,Alaska,66.8805,-157.1499
Ambler,Alaska,67.0897,-157.8725
Shaktoolik,Alaska,64.3567,-161.1972
Huslia,Alaska,65.7002,-156.3386
Kaktovik,Alaska,70.123,-143.6262
Tanana,Alaska,65.1746,-152.0686
Atqasuk,Alaska,70.481,-157.3835
Nikolaevsk,Alaska,59.8295,-151.5964
Copper Center,Alaska,61.9845,-145.3544
Mosquito Lake,Alaska,59.471,-136.1458
Nulato,Alaska,64.7052,-158.2383
Teller,Alaska,65.2531,-166.342
Upper Kalskag,Alaska,61.5416,-160.3337
Clam Gulch,Alaska,60.2001,-151.3939
Point Lay,Alaska,69.7442,-162.8678
Tetlin,Alaska,63.1481,-142.4947
Glacier View,Alaska,61.8511,-147.7764
Aleknagik,Alaska,59.2946,-158.6896
Old Harbor,Alaska,57.2169,-153.3252
Nanwalek,Alaska,59.3302,-151.911
Chickaloon,Alaska,61.804,-148.4103
Nunam Iqua,Alaska,62.511,-164.8998
Whittier,Alaska,60.7852,-148.6455
Mekoryuk,Alaska,60.3704,-166.267
Koliganek,Alaska,59.6971,-157.2258
White Mountain,Alaska,64.6812,-163.4228
Grayling,Alaska,62.8998,-160.1078
Hollis,Alaska,55.5113,-132.7023
Atmautluak,Alaska,60.8622,-162.2858
Newhalen,Alaska,59.727,-154.897
Arctic Village,Alaska,68.1421,-145.4957
Port Lions,Alaska,57.8754,-152.8745
Kokhanok,Alaska,59.4158,-154.7456
Cantwell,Alaska,63.379,-148.8158
Port Graham,Alaska,59.34,-151.8464
Lowell Point,Alaska,60.0629,-149.4898
Minto,Alaska,65.1033,-149.5565
Coffman Cove,Alaska,56.0057,-132.8395
Alcan Border,Alaska,62.6727,-141.1321
Kaltag,Alaska,64.3223,-158.7436
Holy Cross,Alaska,62.1868,-159.8198
Golovin,Alaska,64.564,-162.9989
Allakaket,Alaska,66.5506,-152.627
Seldovia Village,Alaska,59.453,-151.5905
Lutak,Alaska,59.3997,-135.6314
Coldfoot,Alaska,67.2475,-150.1079
Pitkas Point,Alaska,62.0374,-163.2681
Ruby,Alaska,64.7233,-155.5006
Harding-Birch Lakes,Alaska,64.3711,-146.5999
Gakona,Alaska,62.3609,-145.2657
Kobuk,Alaska,66.931,-156.8939
Ouzinkie,Alaska,57.9222,-152.4674
Tanacross,Alaska,63.3523,-143.4318
Wales,Alaska,65.6119,-168.0773
Fort Greely,Alaska,63.9678,-145.7148
Tenakee Springs,Alaska,57.7913,-135.1955
Kenny Lake,Alaska,61.6644,-144.8662
Port Alsworth,Alaska,60.1688,-154.3233
Nondalton,Alaska,59.9711,-154.8627
Ekwok,Alaska,59.3462,-157.4861
Chuathbaluk,Alaska,61.5746,-159.2489
Naukati Bay,Alaska,55.8801,-133.1993
Cold Bay,Alaska,55.2122,-162.7475
Venetie,Alaska,67.0206,-146.3741
Deering,Alaska,66.0723,-162.7437
Diomede,Alaska,65.7536,-168.9219
Dry Creek,Alaska,63.6255,-144.6364
Nelchina,Alaska,61.9989,-146.8112
Mud Bay,Alaska,59.1517,-135.3584
Port Heiden,Alaska,56.9426,-158.6047
Chalkyitsik,Alaska,66.6468,-143.7822
Egegik,Alaska,58.2181,-157.4036
Northway,Alaska,62.9479,-141.8322
St. George,Alaska,56.5791,-169.6114
Primrose,Alaska,60.3497,-149.3199
Perryville,Alaska,55.9315,-159.1559
Sleetmute,Alaska,61.6516,-157.1251
Oscarville,Alaska,60.7288,-161.7728
Koyukuk,Alaska,64.9008,-157.6946
Halibut Cove,Alaska,59.5744,-151.2296
Chignik,Alaska,56.3003,-158.4132
Pelican,Alaska,57.9577,-136.2177
Nikolai,Alaska,63.0095,-154.3763
Nelson Lagoon,Alaska,55.8451,-161.6103
Red Dog Mine,Alaska,68.0645,-162.8667
Gulkana,Alaska,62.2152,-145.4449
Larsen Bay,Alaska,57.5404,-154.0056
Eagle,Alaska,64.7813,-141.1979
Hughes,Alaska,66.0452,-154.2376
Anvik,Alaska,62.6541,-160.214
Atka,Alaska,52.2301,-174.2133
Chistochina,Alaska,62.5921,-144.8135
Shageluk,Alaska,62.6684,-159.563
Crooked Creek,Alaska,61.8439,-158.1082
Crown Point,Alaska,60.4267,-149.3529
Silver Springs,Alaska,62.0193,-145.3584
Tatitlek,Alaska,60.8921,-146.6727
Takotna,Alaska,62.9823,-156.0841
Klukwan,Alaska,59.3987,-135.8886
Igiugig,Alaska,59.3056,-155.8738
Beaver,Alaska,66.383,-147.3219
Hope,Alaska,60.8925,-149.6352
Chignik Lagoon,Alaska,56.3041,-158.5004
Akhiok,Alaska,56.945,-154.2151
Chenega,Alaska,60.0757,-148.0194
Platinum,Alaska,58.978,-161.7185
Twin Hills,Alaska,59.0815,-160.2826
Levelock,Alaska,59.0683,-156.901
Pilot Point,Alaska,57.5585,-157.6798
Circle,Alaska,65.7936,-144.1813
Whitestone,Alaska,64.1528,-145.9061
Clark's Point,Alaska,58.8329,-158.5276
Chitina,Alaska,61.5276,-144.2991
Rampart,Alaska,65.4087,-149.9915
Iliamna,Alaska,59.7957,-154.8698
Port Alexander,Alaska,56.2346,-134.6532
Chignik Lake,Alaska,56.2631,-158.8049
Kasaan,Alaska,55.5573,-132.4137
Eagle Village,Alaska,64.7434,-141.1138
South Naknek,Alaska,58.6638,-156.9908
Port Clarence,Alaska,65.1108,-166.7683
Manley Hot Springs,Alaska,65.0187,-150.6453
False Pass,Alaska,54.8416,-163.348
Tonsina,Alaska,61.5617,-145.0656
Edna Bay,Alaska,55.964,-133.6662
Central,Alaska,65.5213,-144.6409
Stony River,Alaska,61.7936,-156.586
Covenant Life,Alaska,59.3998,-136.0948
Dot Lake Village,Alaska,63.6622,-144.016
Sunrise,Alaska,60.8701,-149.4678
Excursion Inlet,Alaska,58.4355,-135.373
Pedro Bay,Alaska,59.7822,-154.1236
Whale Pass,Alaska,56.1053,-133.1244
Skwentna,Alaska,61.9314,-151.2096
Karluk,Alaska,57.5845,-154.3255
Aleneva,Alaska,58.059,-152.9091
Kupreanof,Alaska,56.8089,-132.9889
Mendeltna,Alaska,62.1359,-146.5388
Nikolski,Alaska,53.0133,-168.7536
Lake Minchumina,Alaska,63.798,-152.3448
Ferry,Alaska,64.0496,-148.9205
Red Devil,Alaska,61.7735,-157.346
Attu Station,Alaska,52.8955,173.123
Stevens Village,Alaska,66.025,-149.0802
Hyder,Alaska,55.9816,-130.0383
Lime Village,Alaska,61.327,-155.3181
Alatna,Alaska,66.5638,-152.8385
Bettles,Alaska,66.9084,-151.5369
Chicken,Alaska,64.0878,-141.8283
Livengood,Alaska,65.4817,-148.4171
Evansville,Alaska,66.9205,-151.4203
Wiseman,Alaska,67.4371,-150.1334
Ugashik,Alaska,57.5736,-157.1232
Healy Lake,Alaska,64.0281,-144.633
Beluga,Alaska,61.1869,-151.1637
Birch Creek,Alaska,66.2686,-145.8698
Elfin Cove,Alaska,58.1912,-136.3129
Four Mile Road,Alaska,64.6045,-149.1222
Portage Creek,Alaska,58.9051,-157.6695
Phoenix,Arizona,33.5722,-112.0891
Tucson,Arizona,32.1545,-110.8782
Mesa,Arizona,33.4017,-111.718
Chandler,Arizona,33.2826,-111.8516
Scottsdale,Arizona,33.6872,-111.8651
Gilbert,Arizona,33.3101,-111.7463
Glendale,Arizona,33.5791,-112.2311
Avondale,Arizona,33.3858,-112.3236
Tempe,Arizona,33.3881,-111.9318
Peoria,Arizona,33.7844,-112.2989
Yuma,Arizona,32.5992,-114.5488
Surprise,Arizona,33.68,-112.4524
Prescott Valley,Arizona,34.5983,-112.3176
San Tan Valley,Arizona,33.1879,-111.5472
Goodyear,Arizona,33.2613,-112.3622
Flagstaff,Arizona,35.1872,-111.6195
Buckeye,Arizona,33.4314,-112.6429
Casas Adobes,Arizona,32.3423,-111.0114
Casa Grande,Arizona,32.9068,-111.7624
Lake Havasu City,Arizona,34.5006,-114.3113
Maricopa,Arizona,33.0404,-112.0006
Sierra Vista,Arizona,31.563,-110.3153
Queen Creek,Arizona,33.2386,-111.6343
Sahuarita,Arizona,31.9323,-110.9654
Catalina Foothills,Arizona,32.3041,-110.8835
Bullhead City,Arizona,35.1205,-114.546
Marana,Arizona,32.4355,-111.1558
Kingman,Arizona,35.217,-114.0105
Oro Valley,Arizona,32.4208,-110.9768
Prescott,Arizona,34.585,-112.4475
Apache Junction,Arizona,33.3985,-111.5351
Sun City,Arizona,33.6165,-112.2819
El Mirage,Arizona,33.5905,-112.3271
San Luis,Arizona,32.4911,-114.7089
Nogales,Arizona,31.3624,-110.9336
Fortuna Foothills,Arizona,32.6616,-114.3973
Drexel Heights,Arizona,32.1457,-111.0478
Florence,Arizona,33.059,-111.4208
Sun City West,Arizona,33.6693,-112.3575
Fountain Hills,Arizona,33.6073,-111.7398
Anthem,Arizona,33.856,-112.1168
Green Valley,Arizona,31.8436,-111.0174
Safford,Arizona,32.8317,-109.7005
Somerton,Arizona,32.6009,-114.699
Eloy,Arizona,32.747,-111.5991
Rio Rico,Arizona,31.4957,-110.9886
Douglas,Arizona,31.3602,-109.5394
New River,Arizona,33.8835,-112.0858
Sierra Vista Southeast,Arizona,31.4525,-110.216
Payson,Arizona,34.2434,-111.3195
Flowing Wells,Arizona,32.2937,-111.011
Tanque Verde,Arizona,32.2687,-110.7437
Fort Mohave,Arizona,35.0004,-114.5748
Paradise Valley,Arizona,33.5434,-111.9595
Sun Lakes,Arizona,33.2172,-111.8695
New Kingman-Butler,Arizona,35.2645,-114.0091
Globe,Arizona,33.3869,-110.7515
Coolidge,Arizona,32.9395,-111.5261
Vail,Arizona,32.0217,-110.6937
Verde Village,Arizona,34.7122,-111.9943
Chino Valley,Arizona,34.7593,-112.4107
Cottonwood,Arizona,34.7192,-112.0014
Tucson Estates,Arizona,32.1792,-111.1254
Valencia West,Arizona,32.1355,-111.1123
Gold Canyon,Arizona,33.3715,-111.4369
Show Low,Arizona,34.2671,-110.0384
Arizona City,Arizona,32.7506,-111.6707
Camp Verde,Arizona,34.5699,-111.8573
Saddlebrooke,Arizona,32.5385,-110.8582
Sedona,Arizona,34.8574,-111.7951
Picture Rocks,Arizona,32.3274,-111.2557
Winslow,Arizona,35.0253,-110.7098
Golden Valley,Arizona,35.206,-114.2327
Tuba City,Arizona,36.125,-111.2468
Corona de Tucson,Arizona,31.9495,-110.7836
Colorado City,Arizona,36.9774,-112.983
Wickenburg,Arizona,33.9837,-112.7668
Catalina,Arizona,32.4848,-110.8998
Page,Arizona,36.9426,-111.5071
Tolleson,Arizona,33.4484,-112.2561
Youngtown,Arizona,33.5846,-112.3047
Snowflake,Arizona,34.5225,-110.0913
Guadalupe,Arizona,33.3664,-111.9633
Litchfield Park,Arizona,33.5024,-112.3586
Village of Oak Creek,Arizona,34.7813,-111.7606
Avra Valley,Arizona,32.4195,-111.3393
Eagar,Arizona,34.1058,-109.2956
Cave Creek,Arizona,33.8513,-111.9801
South Tucson,Arizona,32.1955,-110.9692
Kayenta,Arizona,36.7144,-110.2589
Citrus Park,Arizona,33.5304,-112.444
Williamson,Arizona,34.7082,-112.5342
Rincon Valley,Arizona,32.1101,-110.6889
Bisbee,Arizona,31.4126,-109.9179
Thatcher,Arizona,32.832,-109.7595
Paulden,Arizona,34.8899,-112.4938
Holbrook,Arizona,34.9044,-110.1672
Clifton,Arizona,33.0249,-109.2883
Doney Park,Arizona,35.2687,-111.5053
Parker,Arizona,34.0286,-114.2224
Benson,Arizona,31.9157,-110.3257
Chinle,Arizona,36.1504,-109.5794
Three Points,Arizona,32.0596,-111.2866
Summit,Arizona,32.0619,-110.9483
Fort Defiance,Arizona,35.7469,-109.0685
Pinetop-Lakeside,Arizona,34.1486,-109.9658
San Carlos,Arizona,33.35,-110.4654
Clarkdale,Arizona,34.7503,-112.055
Lake Montezuma,Arizona,34.6414,-111.796
Taylor,Arizona,34.4393,-110.1018
Whiteriver,Arizona,33.8358,-109.9616
Red Rock,Arizona,32.561,-111.3745
Dewey-Humboldt,Arizona,34.5175,-112.2498
Carefree,Arizona,33.8234,-111.9161
Avenue B and C,Arizona,32.7192,-114.6599
Quartzsite,Arizona,33.6675,-114.217
San Manuel,Arizona,32.6091,-110.6415
Lake of the Woods,Arizona,34.1547,-109.9936
Oracle,Arizona,32.6085,-110.7826
Willcox,Arizona,32.2514,-109.8359
St. Johns,Arizona,34.5018,-109.3784
Cornville,Arizona,34.7389,-111.9086
Williams,Arizona,35.2476,-112.1833
Superior,Arizona,33.2851,-111.1109
Wellton,Arizona,32.64,-114.214
Kachina Village,Arizona,35.0949,-111.6927
Swift Trail Junction,Arizona,32.7305,-109.7147
Ajo,Arizona,32.3923,-112.8839
Black Canyon City,Arizona,34.0709,-112.122
Linden,Arizona,34.2625,-110.1424
Central Heights-Midland City,Arizona,33.4,-110.8153
White Mountain Lake,Arizona,34.3441,-109.9879
Heber-Overgaard,Arizona,34.4141,-110.5696
Mohave Valley,Arizona,34.9008,-114.5732
Desert Hills,Arizona,34.5506,-114.3754
Sells,Arizona,31.9202,-111.8775
Cordes Lakes,Arizona,34.3103,-112.1073
Pima,Arizona,32.8886,-109.8437
Window Rock,Arizona,35.6705,-109.0639
Star Valley,Arizona,34.2611,-111.2197
Whetstone,Arizona,31.7011,-110.3398
Grand Canyon Village,Arizona,36.0492,-112.1566
Dolan Springs,Arizona,35.5905,-114.2852
Valle Vista,Arizona,35.4109,-113.8627
Rio Verde,Arizona,33.7278,-111.674
Cibecue,Arizona,34.0333,-110.4854
Kearny,Arizona,33.0564,-110.9074
Gila Bend,Arizona,32.9662,-112.7155
Springerville,Arizona,34.156,-109.2989
First Mesa,Arizona,35.8389,-110.3665
Mayer,Arizona,34.4233,-112.2408
Cienega Springs,Arizona,34.2008,-114.2089
Sacaton,Arizona,33.0793,-111.7683
Second Mesa,Arizona,35.8222,-110.4884
Pine,Arizona,34.3788,-111.4574
Miami,Arizona,33.3951,-110.8721
Bagdad,Arizona,34.5771,-113.1771
Huachuca City,Arizona,31.6308,-110.3422
Scenic,Arizona,36.7931,-114.0151
Mammoth,Arizona,32.6853,-110.7292
Bylas,Arizona,33.1292,-110.1163
Tonto Basin,Arizona,33.8361,-111.3003
Peridot,Arizona,33.3015,-110.4554
North Fork,Arizona,33.9965,-109.9593
Joseph City,Arizona,34.9614,-110.3274
Blackwater,Arizona,33.0396,-111.5798
Kaibito,Arizona,36.592,-111.1071
Congress,Arizona,34.1526,-112.8642
Canyon Day,Arizona,33.7826,-110.0328
Spring Valley,Arizona,34.3531,-112.1513
Morenci,Arizona,33.0531,-109.3307
Pirtleville,Arizona,31.3613,-109.5661
LeChee,Arizona,36.871,-111.4328
Mescal,Arizona,31.9675,-110.4368
Lukachukai,Arizona,36.4112,-109.2267
Parks,Arizona,35.2939,-111.9771
Wagon Wheel,Arizona,34.1976,-110.0273
Pinetop Country Club,Arizona,34.1163,-109.8909
Donovan Estates,Arizona,32.7094,-114.6782
Salome,Arizona,33.7778,-113.6061
Tubac,Arizona,31.6111,-111.0585
Cactus Flats,Arizona,32.7642,-109.7205
Centennial Park,Arizona,36.9538,-112.9813
Tsaile,Arizona,36.3033,-109.2157
Leupp,Arizona,35.2966,-111.0027
Beaver Dam,Arizona,36.9071,-113.9363
Tombstone,Arizona,31.7234,-110.0798
Peach Springs,Arizona,35.5315,-113.4319
Fredonia,Arizona,36.9617,-112.5195
Fort Valley,Arizona,35.2554,-111.7253
Moenkopi,Arizona,36.1124,-111.2212
Arivaca Junction,Arizona,31.739,-111.0738
Six Shooter Canyon,Arizona,33.3568,-110.772
St. David,Arizona,31.8992,-110.2251
Ak-Chin Village,Arizona,33.0197,-112.0808
Meadview,Arizona,35.9531,-114.0789
Many Farms,Arizona,36.3532,-109.6271
Dilkon,Arizona,35.3606,-110.3155
Claypool,Arizona,33.406,-110.8421
Ehrenberg,Arizona,33.6174,-114.4883
St. Michaels,Arizona,35.6606,-109.0962
Arizona Village,Arizona,34.8548,-114.5893
Bouse,Arizona,33.8984,-113.9962
Hotevilla-Bacavi,Arizona,35.9225,-110.6569
Dudleyville,Arizona,32.9128,-110.7345
Rainbow City,Arizona,33.8731,-109.9763
Shongopovi,Arizona,35.8195,-110.5331
Wilhoit,Arizona,34.4083,-112.6156
Casa Blanca,Arizona,33.1154,-111.9081
Ganado,Arizona,35.7016,-109.5504
Bluewater,Arizona,34.1681,-114.2667
Mesa del Caballo,Arizona,34.286,-111.2952
Seven Mile,Arizona,33.7882,-109.9576
Strawberry,Arizona,34.4018,-111.5002
Golden Shores,Arizona,34.7819,-114.4777
Hondah,Arizona,34.086,-109.915
Naco,Arizona,31.3431,-109.9336
Cameron,Arizona,35.8537,-111.4269
Chilchinbito,Arizona,36.5027,-110.0512
Komatke,Arizona,33.2953,-112.1615
Pimaco Two,Arizona,31.9666,-110.4664
Dennehotso,Arizona,36.8209,-109.879
Pinon,Arizona,36.0992,-110.2209
Aguila,Arizona,33.9376,-113.1665
Parker Strip,Arizona,34.2803,-114.1269
Kykotsmovi Village,Arizona,35.8576,-110.6338
Munds Park,Arizona,34.9382,-111.6318
Cactus Forest,Arizona,32.9578,-111.317
Patagonia,Arizona,31.5436,-110.7477
Houck,Arizona,35.2714,-109.2236
Whitecone,Arizona,35.6037,-110.0791
Elephant Head,Arizona,31.7659,-110.9921
Teec Nos Pos,Arizona,36.9221,-109.0753
Mountainaire,Arizona,35.0921,-111.6493
Sonoita,Arizona,31.6645,-110.6426
Duncan,Arizona,32.7344,-109.0972
Willow Valley,Arizona,34.9296,-114.6159
Gila Crossing,Arizona,33.273,-112.1627
Seligman,Arizona,35.3256,-112.8573
Sawmill,Arizona,35.8924,-109.1538
Miracle Valley,Arizona,31.3829,-110.1484
Round Valley,Arizona,34.1877,-111.3018
Yarnell,Arizona,34.2283,-112.7631
Burnside,Arizona,35.7534,-109.6247
Low Mountain,Arizona,35.9481,-110.0981
Arivaca,Arizona,31.575,-111.2926
San Jose,Arizona,32.8169,-109.5957
East Fork,Arizona,33.8081,-109.9227
Ash Fork,Arizona,35.2172,-112.4912
Wittmann,Arizona,33.7749,-112.5251
York,Arizona,32.9175,-109.196
McNary,Arizona,34.0923,-109.8541
Walnut Creek,Arizona,35.1312,-114.1267
Round Rock,Arizona,36.5044,-109.4616
Vicksburg,Arizona,33.7293,-113.8254
Winslow West,Arizona,34.9923,-110.7069
Tacna,Arizona,32.7004,-113.9618
Tees Toh,Arizona,35.4849,-110.3989
Hayden,Arizona,32.9995,-110.7814
Sanders,Arizona,35.2095,-109.3224
Maricopa Colony,Arizona,33.3626,-112.2268
Stotonic Village,Arizona,33.1528,-111.8167
Upper Santan Village,Arizona,33.1152,-111.7418
Rock Point,Arizona,36.7173,-109.6287
Nelson,Arizona,32.4298,-111.2649
Tusayan,Arizona,35.955,-112.1202
Rancho Mesa Verde,Arizona,32.5944,-114.6551
Wellton Hills,Arizona,32.6232,-114.1453
Queen Valley,Arizona,33.283,-111.305
Santa Rosa,Arizona,32.3326,-112.0464
El Prado Estates,Arizona,32.7062,-114.5215
Clay Springs,Arizona,34.3592,-110.3043
Solomon,Arizona,32.8137,-109.6289
Nazlini,Arizona,35.9155,-109.4726
Peeples Valley,Arizona,34.2773,-112.7654
La Paz Valley,Arizona,33.5582,-114.2434
Cedar Creek,Arizona,33.903,-110.1929
Stanfield,Arizona,32.8794,-111.9636
Shonto,Arizona,36.5893,-110.6607
Gadsden,Arizona,32.5564,-114.781
Red Mesa,Arizona,36.9664,-109.3828
Brenda,Arizona,33.6721,-113.9379
Young,Arizona,34.1189,-110.9559
Icehouse Canyon,Arizona,33.3553,-110.7965
Pinal,Arizona,33.3799,-110.7571
Mesquite Creek,Arizona,34.9606,-114.5714
Gisela,Arizona,34.1015,-111.2895
Jerome,Arizona,34.7466,-112.1072
Greasewood,Arizona,35.5279,-109.8614
Fort Thomas,Arizona,33.0222,-109.9665
Bitter Springs,Arizona,36.6118,-111.6475
Drysdale,Arizona,32.6452,-114.7067
Dateland,Arizona,32.8212,-113.5417
Picacho,Arizona,32.709,-111.4908
Rough Rock,Arizona,36.4106,-109.8691
Turkey Creek,Arizona,33.8011,-109.9461
Sacaton Flats Village,Arizona,33.0559,-111.659
Wheatfields,Arizona,33.4805,-110.8366
Elfrida,Arizona,31.6858,-109.6896
Topawa,Arizona,31.8078,-111.8305
Littlefield,Arizona,36.8663,-113.9358
Chloride,Arizona,35.4097,-114.1973
Wenden,Arizona,33.8324,-113.5433
Cibola,Arizona,33.3733,-114.6792
Winkelman,Arizona,32.9853,-110.7651
Del Muerto,Arizona,36.187,-109.4348
Clacks Canyon,Arizona,35.2203,-114.0723
Chuichu,Arizona,32.7403,-111.7821
So-Hi,Arizona,35.2527,-114.1416
Tolani Lake,Arizona,35.4309,-110.8431
Cane Beds,Arizona,36.9342,-112.9118
Central,Arizona,32.8692,-109.7908
Kino Springs,Arizona,31.3642,-110.8096
Lazy Y U,Arizona,35.1369,-113.9684
Tonalea,Arizona,36.3218,-110.9667
Steamboat,Arizona,35.7535,-109.8504
Top-of-the-World,Arizona,33.3477,-110.9997
Bowie,Arizona,32.3247,-109.4843
Keams Canyon,Arizona,35.8229,-110.2011
Pisinemo,Arizona,32.0349,-112.3192
Indian Wells,Arizona,35.4089,-110.1061
South Komelik,Arizona,31.7144,-111.7744
San Miguel,Arizona,31.6295,-111.7801
Goodyear Village,Arizona,33.1973,-111.8724
Cornfields,Arizona,35.6515,-109.6756
Dripping Springs,Arizona,33.105,-110.7551
Klagetoh,Arizona,35.5011,-109.5283
Valle,Arizona,35.6245,-112.135
Freedom Acres,Arizona,34.3199,-111.3051
White Hills,Arizona,35.7242,-114.4004
Pinedale,Arizona,34.3208,-110.2599
Wall Lane,Arizona,32.6573,-114.7105
Poston,Arizona,33.9921,-114.4046
Jeddito,Arizona,35.7697,-110.1305
Lower Santan Village,Arizona,33.1427,-111.7853
Oxbow Estates,Arizona,34.1824,-111.343
Sunizona,Arizona,31.8841,-109.6328
Morristown,Arizona,33.8548,-112.6135
Tonto Village,Arizona,34.3198,-111.1394
Fort Apache,Arizona,33.7907,-109.9873
Oljato-Monument Valley,Arizona,36.9867,-110.191
San Simon,Arizona,32.268,-109.2308
Deer Creek,Arizona,34.0644,-111.3505
Ali Chuk,Arizona,31.8169,-112.5584
Palominas,Arizona,31.3838,-110.1212
Jakes Corner,Arizona,34.0083,-111.3202
Sacate Village,Arizona,33.1416,-111.9811
East Globe,Arizona,33.3511,-110.7061
Antares,Arizona,35.4229,-113.8083
Vernon,Arizona,34.2509,-109.6926
Pinion Pines,Arizona,35.1466,-113.9058
Arlington,Arizona,33.3346,-112.7747
McNeal,Arizona,31.6079,-109.6699
Kohls Ranch,Arizona,34.321,-111.0838
Alpine,Arizona,33.846,-109.1431
Beaver Valley,Arizona,34.3409,-111.2987
Why,Arizona,32.259,-112.7307
Sehili,Arizona,36.2807,-109.1814
Gu Oidak,Arizona,31.9206,-112.0233
Wahak Hotrontk,Arizona,32.1748,-112.3663
Haivana Nakya,Arizona,32.0051,-111.7124
Maish Vaya,Arizona,32.1703,-112.1342
Crystal Beach,Arizona,34.5714,-114.3926
Pine Lake,Arizona,35.0887,-113.8739
Hackberry,Arizona,35.3401,-113.7256
Tumacacori-Carmen,Arizona,31.5771,-111.0469
Kaibab,Arizona,36.8815,-112.7237
Washington Park,Arizona,34.3978,-111.2731
Utting,Arizona,33.8544,-113.9129
Christopher Creek,Arizona,34.3206,-111.0072
Kaka,Arizona,32.5113,-112.3167
East Verde Estates,Arizona,34.2983,-111.3645
Woodruff,Arizona,34.7843,-110.0366
Ventana,Arizona,32.4681,-112.2434
Cowlic,Arizona,31.8048,-111.9877
Campo Bonito,Arizona,32.5629,-110.6984
Bryce,Arizona,32.9258,-109.8229
Wikieup,Arizona,34.6931,-113.5995
Moccasin,Arizona,36.9099,-112.7546
Seba Dalkai,Arizona,35.4816,-110.4562
Nolic,Arizona,32.0341,-111.955
Elgin,Arizona,31.668,-110.5347
Theba,Arizona,32.9182,-112.8899
Franklin,Arizona,32.677,-109.072
Rock House,Arizona,33.6318,-110.9456
Carrizo,Arizona,33.9867,-110.3314
Wet Camp Village,Arizona,33.1413,-111.9004
Oak Springs,Arizona,35.476,-109.1318
Anegam,Arizona,32.3742,-112.035
Sun Valley,Arizona,34.9835,-110.0374
Whispering Pines,Arizona,34.3728,-111.2813
Valentine,Arizona,35.3886,-113.6591
Katherine,Arizona,35.2206,-114.5615
Yucca,Arizona,34.863,-114.1461
Flowing Springs,Arizona,34.3131,-111.3379
Ali Molina,Arizona,31.9025,-111.7805
Santa Cruz,Arizona,33.2326,-112.1593
Tonopah,Arizona,33.488,-112.9308
Martinez Lake,Arizona,32.9843,-114.4722
Rye,Arizona,34.0978,-111.3543
Ali Chukson,Arizona,31.9115,-111.8016
Haigler Creek,Arizona,34.2163,-110.9719
Hard Rock,Arizona,36.0309,-110.5048
Crozier,Arizona,35.4227,-113.6486
Padre Ranchitos,Arizona,32.6497,-114.6416
Cutter,Arizona,33.3584,-110.6593
Tat Momoli,Arizona,32.6013,-111.8862
Oatman,Arizona,35.0275,-114.384
Summerhaven,Arizona,32.4416,-110.7766
Truxton,Arizona,35.487,-113.5607
Sunwest,Arizona,33.651,-113.4091
Greer,Arizona,34.0054,-109.4611
Wide Ruins,Arizona,35.4175,-109.4995
El Capitan,Arizona,33.2383,-110.7833
Beyerville,Arizona,31.3921,-110.8748
Amado,Arizona,31.6968,-111.0583
Wintersburg,Arizona,33.4187,-112.8666
Alamo Lake,Arizona,34.2588,-113.5079
Charco,Arizona,32.2474,-112.6001
Buckshot,Arizona,32.7404,-114.4829
Lupton,Arizona,35.3548,-109.0528
Hunter Creek,Arizona,34.3054,-111.0159
Dragoon,Arizona,32.0263,-110.0365
Roosevelt,Arizona,33.6618,-111.1295
Ko Vaya,Arizona,32.0815,-111.8959
Sweet Water Village,Arizona,33.1274,-111.8424
Mojave Ranch Estates,Arizona,34.9449,-114.5907
Little Rock,Arkansas,34.7256,-92.3576
Fayetteville,Arkansas,36.0713,-94.166
Fort Smith,Arkansas,35.3493,-94.3695
Springdale,Arkansas,36.1899,-94.1574
Jonesboro,Arkansas,35.8212,-90.6791
Conway,Arkansas,35.0754,-92.4694
Rogers,Arkansas,36.3172,-94.1526
North Little Rock,Arkansas,34.7808,-92.2371
Hot Springs,Arkansas,34.4892,-93.0501
Bentonville,Arkansas,36.3546,-94.2306
Pine Bluff,Arkansas,34.2116,-92.0178
Benton,Arkansas,34.5775,-92.5712
Russellville,Arkansas,35.2763,-93.1383
Sherwood,Arkansas,34.8508,-92.2028
Texarkana,Arkansas,33.4361,-93.996
Paragould,Arkansas,36.0555,-90.5149
Bella Vista,Arkansas,36.4667,-94.2707
Jacksonville,Arkansas,34.8807,-92.1302
Searcy,Arkansas,35.2418,-91.7351
Cabot,Arkansas,34.9768,-92.0274
West Memphis,Arkansas,35.1531,-90.1995
Van Buren,Arkansas,35.448,-94.3528
Siloam Springs,Arkansas,36.1844,-94.5318
Bryant,Arkansas,34.6152,-92.4914
Maumelle,Arkansas,34.8522,-92.4
El Dorado,Arkansas,33.2184,-92.664
Centerton,Arkansas,36.3567,-94.2971
Blytheville,Arkansas,35.9321,-89.9051
Hot Springs Village,Arkansas,34.6568,-92.9644
Mountain Home,Arkansas,36.3348,-92.3846
Harrison,Arkansas,36.2438,-93.1198
Forrest City,Arkansas,35.0135,-90.7931
Marion,Arkansas,35.2041,-90.2061
Batesville,Arkansas,35.7687,-91.6226
Malvern,Arkansas,34.3734,-92.8205
Magnolia,Arkansas,33.2774,-93.2261
Camden,Arkansas,33.5672,-92.8467
Arkadelphia,Arkansas,34.1255,-93.0725
Helena-West Helena,Arkansas,34.5314,-90.6201
Clarksville,Arkansas,35.457,-93.4803
Hope,Arkansas,33.6682,-93.5895
Lowell,Arkansas,36.2561,-94.1532
Greenwood,Arkansas,35.2134,-94.2408
Monticello,Arkansas,33.6258,-91.7934
Stuttgart,Arkansas,34.495,-91.5485
Beebe,Arkansas,35.0712,-91.8996
Wynne,Arkansas,35.2322,-90.7894
Newport,Arkansas,35.6234,-91.2322
Farmington,Arkansas,36.037,-94.2537
Osceola,Arkansas,35.6942,-89.9934
Trumann,Arkansas,35.6771,-90.5261
Heber Springs,Arkansas,35.5003,-92.0332
Crossett,Arkansas,33.128,-91.9631
Prairie Grove,Arkansas,35.9858,-94.3048
Pocahontas,Arkansas,36.2637,-90.9706
Morrilton,Arkansas,35.1558,-92.7387
Walnut Ridge,Arkansas,36.0851,-90.9463
De Queen,Arkansas,34.0426,-94.342
East End,Arkansas,34.5554,-92.3261
Pea Ridge,Arkansas,36.449,-94.1211
Alma,Arkansas,35.4919,-94.2165
Greenbrier,Arkansas,35.2289,-92.3836
Warren,Arkansas,33.6113,-92.0677
Berryville,Arkansas,36.3713,-93.5704
Mena,Arkansas,34.5812,-94.2369
Ward,Arkansas,35.0117,-91.9577
Cave Springs,Arkansas,36.2701,-94.2225
Barling,Arkansas,35.3284,-94.2792
Gibson,Arkansas,34.8923,-92.2341
White Hall,Arkansas,34.2737,-92.1005
Sheridan,Arkansas,34.2995,-92.4226
Rockwell,Arkansas,34.4641,-93.1341
Cherokee Village,Arkansas,36.2959,-91.5696
Vilonia,Arkansas,35.0807,-92.2088
Haskell,Arkansas,34.5095,-92.6406
Dardanelle,Arkansas,35.2263,-93.1649
Piney,Arkansas,34.5024,-93.142
Ashdown,Arkansas,33.6746,-94.1264
Nashville,Arkansas,33.9418,-93.8516
Tontitown,Arkansas,36.1642,-94.2457
Dumas,Arkansas,33.8849,-91.4861
Lonoke,Arkansas,34.7908,-91.9069
Austin,Arkansas,35.0061,-91.9895
Gentry,Arkansas,36.257,-94.4907
Shannon Hills,Arkansas,34.6157,-92.4217
Southside,Arkansas,35.7149,-91.6329
Booneville,Arkansas,35.1393,-93.9179
Johnson,Arkansas,36.1328,-94.1757
Fordyce,Arkansas,33.8181,-92.4174
McGehee,Arkansas,33.628,-91.3953
Brookland,Arkansas,35.8991,-90.5767
Ozark,Arkansas,35.4995,-93.8431
Piggott,Arkansas,36.3858,-90.2017
Gravette,Arkansas,36.4291,-94.3714
Elkins,Arkansas,36.0163,-94.025
Alexander,Arkansas,34.6185,-92.4512
Landmark,Arkansas,34.607,-92.3206
Marianna,Arkansas,34.7736,-90.7674
Waldron,Arkansas,34.902,-94.0953
Paris,Arkansas,35.2894,-93.7253
Manila,Arkansas,35.8848,-90.1653
Pottsville,Arkansas,35.2314,-93.0652
Gosnell,Arkansas,35.9645,-89.9721
Corning,Arkansas,36.4111,-90.5861
Atkins,Arkansas,35.2414,-92.9465
Dermott,Arkansas,33.5271,-91.4324
DeWitt,Arkansas,34.2873,-91.3383
Prescott,Arkansas,33.8056,-93.3909
Bald Knob,Arkansas,35.3123,-91.5709
Mountain View,Arkansas,35.8635,-92.1041
North Crossett,Arkansas,33.171,-91.9367
Little Flock,Arkansas,36.3854,-94.1364
Bethel Heights,Arkansas,36.2262,-94.1282
Green Forest,Arkansas,36.3344,-93.4286
England,Arkansas,34.546,-91.969
West Fork,Arkansas,35.9357,-94.1799
Lake City,Arkansas,35.8202,-90.4546
Hamburg,Arkansas,33.2248,-91.7972
Hoxie,Arkansas,36.036,-90.9736
Brinkley,Arkansas,34.89,-91.1902
Huntsville,Arkansas,36.0985,-93.7363
Clinton,Arkansas,35.5796,-92.4543
Bono,Arkansas,35.9112,-90.8009
Lincoln,Arkansas,35.949,-94.4174
Elm Springs,Arkansas,36.2069,-94.2366
Charleston,Arkansas,35.2954,-94.0461
Lavaca,Arkansas,35.3341,-94.1799
Prairie Creek,Arkansas,36.34,-94.0613
Marked Tree,Arkansas,35.5251,-90.4251
Danville,Arkansas,35.053,-93.3902
Mayflower,Arkansas,34.9686,-92.4225
Holiday Island,Arkansas,36.4762,-93.7342
Harrisburg,Arkansas,35.5637,-90.7216
Lake Hamilton,Arkansas,34.4269,-93.0887
Lake Village,Arkansas,33.3299,-91.2847
Fairfield Bay,Arkansas,35.605,-92.2658
Earle,Arkansas,35.2734,-90.4642
Gassville,Arkansas,36.285,-92.4868
Carlisle,Arkansas,34.7947,-91.7361
Wrightsville,Arkansas,34.6109,-92.2136
Glenwood,Arkansas,34.3279,-93.5309
Horseshoe Bend,Arkansas,36.2217,-91.7396
Eureka Springs,Arkansas,36.4105,-93.745
Gurdon,Arkansas,33.9155,-93.1544
Star City,Arkansas,33.9408,-91.84
Judsonia,Arkansas,35.277,-91.6411
Salem,Arkansas,34.631,-92.5608
Augusta,Arkansas,35.2866,-91.3614
Bull Shoals,Arkansas,36.3747,-92.5903
Goshen,Arkansas,36.1043,-94.0035
Cave City,Arkansas,35.9481,-91.5468
Eudora,Arkansas,33.119,-91.264
McAlmont,Arkansas,34.7926,-92.1959
Melbourne,Arkansas,36.0638,-91.8819
Leachville,Arkansas,35.9042,-90.2622
Bay,Arkansas,35.7456,-90.5547
Lepanto,Arkansas,35.6085,-90.333
Decatur,Arkansas,36.3402,-94.4578
Calico Rock,Arkansas,36.1399,-92.1337
Rector,Arkansas,36.2642,-90.2935
Lamar,Arkansas,35.4436,-93.3951
Mulberry,Arkansas,35.5102,-94.0734
Smackover,Arkansas,33.3636,-92.7314
Tuckerman,Arkansas,35.724,-91.2025
Kensett,Arkansas,35.2354,-91.6706
Monette,Arkansas,35.8931,-90.3442
Murfreesboro,Arkansas,34.0546,-93.6834
Des Arc,Arkansas,34.9777,-91.5068
Redfield,Arkansas,34.4429,-92.1843
McCrory,Arkansas,35.2572,-91.1974
Stamps,Arkansas,33.3567,-93.4956
Perryville,Arkansas,35.012,-92.803
Dover,Arkansas,35.391,-93.1143
Cedarville,Arkansas,35.583,-94.3615
Greenland,Arkansas,35.9965,-94.1903
Clarendon,Arkansas,34.6935,-91.3062
Hazen,Arkansas,34.7966,-91.5725
Marshall,Arkansas,35.9083,-92.6459
Flippin,Arkansas,36.2774,-92.5935
Caraway,Arkansas,35.7598,-90.3224
Waldo,Arkansas,33.3528,-93.2949
Hampton,Arkansas,33.5363,-92.4661
Marmaduke,Arkansas,36.1901,-90.3851
Hughes,Arkansas,34.9483,-90.4707
Rison,Arkansas,33.96,-92.1937
Ola,Arkansas,35.031,-93.2244
Diaz,Arkansas,35.6478,-91.262
Avilla,Arkansas,34.6988,-92.5813
Newark,Arkansas,35.7083,-91.4432
Sulphur Springs,Arkansas,34.1708,-92.1299
West Crossett,Arkansas,33.1488,-92.0221
Yellville,Arkansas,36.2289,-92.686
Mineral Springs,Arkansas,33.8767,-93.9218
Midway,Arkansas,36.3916,-92.4724
Lewisville,Arkansas,33.3643,-93.5751
Wooster,Arkansas,35.1998,-92.4503
Highland,Arkansas,36.2657,-91.5186
Ash Flat,Arkansas,36.2365,-91.6067
Mansfield,Arkansas,35.0634,-94.2375
Dierks,Arkansas,34.12,-94.0173
Oak Grove Heights,Arkansas,36.1271,-90.5085
London,Arkansas,35.328,-93.2417
Sweet Home,Arkansas,34.6707,-92.2465
Horatio,Arkansas,33.941,-94.3554
Kibler,Arkansas,35.4265,-94.2368
Luxora,Arkansas,35.7576,-89.9298
Coal Hill,Arkansas,35.4375,-93.6647
Mount Ida,Arkansas,34.5509,-93.6309
Parkin,Arkansas,35.2629,-90.553
Tumbling Shoals,Arkansas,35.5479,-91.9688
Mammoth Spring,Arkansas,36.4924,-91.5413
Cotter,Arkansas,36.2819,-92.5212
Foreman,Arkansas,33.7198,-94.3979
Marvell,Arkansas,34.5563,-90.9153
Dyer,Arkansas,35.4944,-94.1388
Fouke,Arkansas,33.2622,-93.8852
Kirby,Arkansas,34.2556,-93.6522
Bearden,Arkansas,33.7276,-92.6187
Greers Ferry,Arkansas,35.5674,-92.1688
Hackett,Arkansas,35.1878,-94.4106
Magazine,Arkansas,35.1534,-93.8078
East Camden,Arkansas,33.6082,-92.7436
Wilson,Arkansas,35.5661,-90.043
Altheimer,Arkansas,34.3242,-91.8481
Diamond City,Arkansas,36.4575,-92.9129
Guy,Arkansas,35.3272,-92.3366
Stephens,Arkansas,33.4221,-93.067
Mountain Pine,Arkansas,34.5693,-93.1726
Norphlet,Arkansas,33.3199,-92.662
Plumerville,Arkansas,35.16,-92.6424
Hermitage,Arkansas,33.4471,-92.1712
Hardy,Arkansas,36.3187,-91.4791
Knoxville,Arkansas,35.378,-93.3632
Wickes,Arkansas,34.2988,-94.3331
Oppelo,Arkansas,35.1003,-92.7733
Bradford,Arkansas,35.422,-91.4552
Swifton,Arkansas,35.8245,-91.1294
Higginson,Arkansas,35.1968,-91.7152
Altus,Arkansas,35.4465,-93.7643
Gould,Arkansas,33.9872,-91.564
Lockesburg,Arkansas,33.9716,-94.1761
Tyronza,Arkansas,35.4868,-90.3559
Cammack Village,Arkansas,34.7808,-92.3449
Lakeview,Arkansas,36.3739,-92.5387
Quitman,Arkansas,35.382,-92.2142
Rockport,Arkansas,34.4069,-92.8078
Natural Steps,Arkansas,34.8669,-92.4881
Madison,Arkansas,35.0188,-90.7299
Amity,Arkansas,34.2662,-93.4634
Gillett,Arkansas,34.1193,-91.3789
Oxford,Arkansas,36.2092,-91.919
Keiser,Arkansas,35.674,-90.0958
Weiner,Arkansas,35.6197,-90.9054
McRae,Arkansas,35.1119,-91.8253
Caddo Valley,Arkansas,34.1897,-93.0679
Highfill,Arkansas,36.2767,-94.3237
Hartford,Arkansas,35.0236,-94.3799
Huntington,Arkansas,35.0813,-94.2665
Imboden,Arkansas,36.2021,-91.1823
Mountainburg,Arkansas,35.6361,-94.1679
Black Rock,Arkansas,36.107,-91.1074
Summit,Arkansas,36.2522,-92.6883
Roland,Arkansas,34.9005,-92.5186
Cherry Valley,Arkansas,35.4021,-90.7545
Pangburn,Arkansas,35.4261,-91.8394
Plainview,Arkansas,34.9899,-93.2979
Garfield,Arkansas,36.4554,-93.9757
Holland,Arkansas,35.166,-92.277
Palestine,Arkansas,34.9689,-90.9062
Cotton Plant,Arkansas,35.0059,-91.252
Grannis,Arkansas,34.2398,-94.322
Fountain Lake,Arkansas,34.6121,-92.9233
Taylor,Arkansas,33.0998,-93.4618
Bonanza,Arkansas,35.2335,-94.4168
Subiaco,Arkansas,35.2982,-93.6385
Hartman,Arkansas,35.4353,-93.6235
De Valls Bluff,Arkansas,34.7859,-91.4602
Turrell,Arkansas,35.3763,-90.2704
Bauxite,Arkansas,34.5602,-92.4988
Traskwood,Arkansas,34.4533,-92.6642
Magnet Cove,Arkansas,34.4492,-92.8379
Norfork,Arkansas,36.2099,-92.2801
Holly Grove,Arkansas,34.6003,-91.1963
Huttig,Arkansas,33.0418,-92.1818
Bradley,Arkansas,33.0993,-93.6569
Junction City,Arkansas,33.022,-92.7236
Avoca,Arkansas,36.398,-94.071
Bergman,Arkansas,36.3128,-93.0115
Strong,Arkansas,33.1079,-92.3598
Central City,Arkansas,35.33,-94.2347
Leola,Arkansas,34.1701,-92.5914
Joiner,Arkansas,35.5056,-90.15
Elaine,Arkansas,34.3086,-90.8535
Wilmot,Arkansas,33.0588,-91.5749
Rose Bud,Arkansas,35.3249,-92.0811
Jasper,Arkansas,36.0125,-93.1874
Wilmar,Arkansas,33.6264,-91.9294
College Station,Arkansas,34.705,-92.2296
Humphrey,Arkansas,34.4224,-91.7025
Bellefonte,Arkansas,36.1998,-93.047
Gateway,Arkansas,36.4854,-93.9365
McNeil,Arkansas,33.3479,-93.2083
Sulphur Rock,Arkansas,35.7516,-91.5003
Maysville,Arkansas,36.4019,-94.5889
Hector,Arkansas,35.4644,-92.976
Tull,Arkansas,34.441,-92.5779
Emmet,Arkansas,33.7227,-93.4657
Lafe,Arkansas,36.2092,-90.5043
Salesville,Arkansas,36.241,-92.2769
Cushman,Arkansas,35.8658,-91.7781
Caldwell,Arkansas,35.0788,-90.8136
Crawfordsville,Arkansas,35.2267,-90.3241
Ravenden,Arkansas,36.2417,-91.2511
Reyno,Arkansas,36.3609,-90.759
Calion,Arkansas,33.3285,-92.5402
Evening Shade,Arkansas,36.0701,-91.6218
Winslow,Arkansas,35.8008,-94.1305
Belleville,Arkansas,35.0915,-93.4458
Maynard,Arkansas,36.4214,-90.9018
Mount Pleasant,Arkansas,35.9818,-91.7771
Leslie,Arkansas,35.8294,-92.5563
Portia,Arkansas,36.0849,-91.0711
Yarborough Landing,Arkansas,33.7126,-94.0108
Kingsland,Arkansas,33.8658,-92.2911
Alpena,Arkansas,36.2896,-93.3037
Oak Grove,Arkansas,36.4642,-93.4302
Edmondson,Arkansas,35.1041,-90.3052
Grady,Arkansas,34.079,-91.6981
Patterson,Arkansas,35.259,-91.2349
Hatfield,Arkansas,34.4859,-94.3793
Portland,Arkansas,33.2379,-91.511
Thornton,Arkansas,33.7756,-92.4889
Damascus,Arkansas,35.3671,-92.4108
Sparkman,Arkansas,33.9171,-92.85
Cove,Arkansas,34.4366,-94.416
Woodson,Arkansas,34.538,-92.2212
Center Ridge,Arkansas,35.3806,-92.5702
Pleasant Plains,Arkansas,35.5545,-91.6274
Havana,Arkansas,35.1098,-93.526
Dyess,Arkansas,35.5894,-90.2133
Norman,Arkansas,34.4584,-93.6791
Western Grove,Arkansas,36.1011,-92.9546
Clarkedale,Arkansas,35.297,-90.2103
Cash,Arkansas,35.8013,-90.9315
Viola,Arkansas,36.3968,-91.9863
Enola,Arkansas,35.1958,-92.2068
Grubbs,Arkansas,35.654,-91.0755
Fredonia,Arkansas,34.8197,-91.4102
Wilton,Arkansas,33.7388,-94.148
Bigelow,Arkansas,34.9975,-92.6315
Emerson,Arkansas,33.0973,-93.196
Branch,Arkansas,35.3075,-93.9556
Biggers,Arkansas,36.3319,-90.8052
Mitchellville,Arkansas,33.9053,-91.4983
Twin Groves,Arkansas,35.3187,-92.4253
Colt,Arkansas,35.1329,-90.813
Dennard,Arkansas,35.7498,-92.5394
Midland,Arkansas,35.0927,-94.3531
Etowah,Arkansas,35.7225,-90.232
Menifee,Arkansas,35.1493,-92.5544
Arkansas City,Arkansas,33.609,-91.2048
Prattsville,Arkansas,34.3172,-92.5429
Montrose,Arkansas,33.2989,-91.4965
Blevins,Arkansas,33.8716,-93.5778
Donaldson,Arkansas,34.235,-92.9195
Wheatley,Arkansas,34.9211,-91.1063
Carthage,Arkansas,34.0726,-92.5553
Lost Bridge Village,Arkansas,36.3898,-93.9156
Garner,Arkansas,35.1418,-91.781
Poyen,Arkansas,34.3243,-92.642
Perry,Arkansas,35.0458,-92.7948
Strawberry,Arkansas,35.9665,-91.3211
Shirley,Arkansas,35.6442,-92.3137
Humnoke,Arkansas,34.5422,-91.7596
Oil Trough,Arkansas,35.6292,-91.4612
Horseshoe Lake,Arkansas,34.9136,-90.3079
Delight,Arkansas,34.0299,-93.5057
Lead Hill,Arkansas,36.4128,-92.9068
Lynn,Arkansas,36.0042,-91.252
Black Oak,Arkansas,35.8365,-90.3677
Almyra,Arkansas,34.4057,-91.4108
Knobel,Arkansas,36.32,-90.6022
Chidester,Arkansas,33.702,-93.0238
Perrytown,Arkansas,33.6973,-93.5342
Parkdale,Arkansas,33.1212,-91.5464
Keo,Arkansas,34.6088,-92.0104
Tollette,Arkansas,33.8182,-93.8969
Denning,Arkansas,35.4252,-93.7568
Harrell,Arkansas,33.5102,-92.4011
Perla,Arkansas,34.3647,-92.7762
Gilmore,Arkansas,35.4131,-90.2973
Widener,Arkansas,35.0233,-90.6817
Letona,Arkansas,35.3635,-91.8296
Hickory Ridge,Arkansas,35.403,-90.9946
Briarcliff,Arkansas,36.2721,-92.2824
Lexa,Arkansas,34.5982,-90.7519
Rosston,Arkansas,33.5877,-93.2798
Garland,Arkansas,33.3609,-93.7142
Concord,Arkansas,35.6625,-91.849
Pyatt,Arkansas,36.2509,-92.8443
Scranton,Arkansas,35.3606,-93.5394
Buckner,Arkansas,33.3572,-93.4358
Campbell Station,Arkansas,35.6678,-91.2538
St. Francis,Arkansas,36.4556,-90.1428
Griffithville,Arkansas,35.1233,-91.6447
Pineville,Arkansas,36.1612,-92.1065
Wabbaseka,Arkansas,34.3591,-91.7926
Russell,Arkansas,35.3621,-91.5101
Oden,Arkansas,34.6215,-93.7862
Fisher,Arkansas,35.4915,-90.9725
Tillar,Arkansas,33.7109,-91.4517
St. Charles,Arkansas,34.3732,-91.1373
Magness,Arkansas,35.703,-91.4821
Caulksville,Arkansas,35.3017,-93.868
Adona,Arkansas,35.0399,-92.8991
Pollard,Arkansas,36.4296,-90.267
Jacksonport,Arkansas,35.6422,-91.3079
New Edinburg,Arkansas,33.7565,-92.2401
O'Kean,Arkansas,36.1715,-90.8183
Fulton,Arkansas,33.6126,-93.8137
Reader,Arkansas,33.7518,-93.1009
Franklin,Arkansas,36.1727,-91.7697
Friendship,Arkansas,34.2243,-93.0037
Sunset,Arkansas,35.224,-90.2057
Greenway,Arkansas,36.3406,-90.2223
Sidney,Arkansas,36.0044,-91.6583
Dell,Arkansas,35.8592,-90.026
Ratcliff,Arkansas,35.3066,-93.8887
Watson,Arkansas,33.8939,-91.2572
Winthrop,Arkansas,33.8308,-94.3542
Moro,Arkansas,34.7919,-90.988
West Point,Arkansas,35.2034,-91.6099
Houston,Arkansas,35.0349,-92.6945
Fifty-Six,Arkansas,35.962,-92.2301
Omaha,Arkansas,36.4583,-93.191
Valley Springs,Arkansas,36.1537,-92.9896
Tupelo,Arkansas,35.391,-91.2298
Washington,Arkansas,33.773,-93.6833
Casa,Arkansas,35.0253,-93.0448
McDougal,Arkansas,36.4365,-90.3907
Burdette,Arkansas,35.8153,-89.9457
Sedgwick,Arkansas,35.9753,-90.8678
Rondo,Arkansas,34.6575,-90.8208
Winchester,Arkansas,33.7741,-91.4737
Bassett,Arkansas,35.5356,-90.1294
Fountain Hill,Arkansas,33.3576,-91.8511
Chester,Arkansas,35.6778,-94.1778
Gillham,Arkansas,34.1686,-94.3145
Ogden,Arkansas,33.5859,-94.0469
Ulm,Arkansas,34.5762,-91.4617
Louann,Arkansas,33.3915,-92.7923
Rudy,Arkansas,35.5285,-94.241
Mount Vernon,Arkansas,35.2236,-92.124
Anthonyville,Arkansas,35.0398,-90.3403
Reed,Arkansas,33.7017,-91.4458
Staves,Arkansas,34.031,-92.278
Ben Lomond,Arkansas,33.8335,-94.1177
Willisville,Arkansas,33.5194,-93.2949
Felsenthal,Arkansas,33.0588,-92.1533
Woodlawn,Arkansas,33.9668,-92.0452
Aubrey,Arkansas,34.7193,-90.8976
Okolona,Arkansas,34.0005,-93.3376
Everton,Arkansas,36.1541,-92.9095
Moorefield,Arkansas,35.7672,-91.5708
Success,Arkansas,36.4545,-90.7226
Georgetown,Arkansas,35.1267,-91.4539
Alicia,Arkansas,35.8929,-91.0835
Bodcaw,Arkansas,33.5607,-93.4013
St. Joe,Arkansas,36.029,-92.8078
Haynes,Arkansas,34.8909,-90.7927
Peach Orchard,Arkansas,36.2812,-90.6608
Higden,Arkansas,35.5666,-92.2047
Ravenden Springs,Arkansas,36.3127,-91.2233
Blue Mountain,Arkansas,35.1311,-93.7162
Allport,Arkansas,34.5399,-91.784
Jennette,Arkansas,35.1639,-90.4092
Bluff City,Arkansas,33.7224,-93.1316
Banks,Arkansas,33.5758,-92.2671
Delaplaine,Arkansas,36.2304,-90.7256
Gum Springs,Arkansas,34.0639,-93.0957
St. Paul,Arkansas,35.8245,-93.7642
Rye,Arkansas,33.7505,-91.9985
Daisy,Arkansas,34.2349,-93.7406
Egypt,Arkansas,35.8676,-90.9457
Antoine,Arkansas,34.0343,-93.4226
Minturn,Arkansas,35.9766,-91.0272
Pindall,Arkansas,36.0637,-92.8622
Big Flat,Arkansas,36.0056,-92.4066
Jericho,Arkansas,35.2856,-90.2293
Zinc,Arkansas,36.2836,-92.9147
Lonsdale,Arkansas,34.545,-92.8106
South Lead Hill,Arkansas,36.3948,-92.9057
Springtown,Arkansas,36.2605,-94.4241
McCaskill,Arkansas,33.9187,-93.6416
Beedeville,Arkansas,35.4292,-91.1107
Roe,Arkansas,34.6311,-91.386
Beaver,Arkansas,36.4752,-93.7727
Hunter,Arkansas,35.0546,-91.1227
Datto,Arkansas,36.3925,-90.7285
Coy,Arkansas,34.5405,-91.8713
Black Springs,Arkansas,34.4607,-93.7123
Amagon,Arkansas,35.5632,-91.1094
Vandervoort,Arkansas,34.38,-94.3641
Whelen Springs,Arkansas,33.8331,-93.1259
Guion,Arkansas,35.9269,-91.939
Ozan,Arkansas,33.848,-93.7203
Williford,Arkansas,36.2517,-91.3604
Fargo,Arkansas,34.9537,-91.1764
Morrison Bluff,Arkansas,35.3828,-93.5228
Sherrill,Arkansas,34.385,-91.9517
Marie,Arkansas,35.613,-90.0829
LaGrange,Arkansas,34.6554,-90.735
Cale,Arkansas,33.6279,-93.2348
Smithville,Arkansas,36.0799,-91.3027
Weldon,Arkansas,35.4481,-91.2315
Corinth,Arkansas,35.0693,-93.4235
McNab,Arkansas,33.6609,-93.8323
Hindsville,Arkansas,36.1458,-93.8627
Nimmons,Arkansas,36.3062,-90.0951
Fourche,Arkansas,34.9933,-92.6189
Powhatan,Arkansas,36.0841,-91.1202
New Blaine,Arkansas,35.2929,-93.4202
Patmos,Arkansas,33.5112,-93.5679
Oakhaven,Arkansas,33.7294,-93.6209
Waldenburg,Arkansas,35.5653,-90.9346
Hensley,Arkansas,34.5068,-92.2069
Cherokee City,Arkansas,36.2947,-94.5769
Wiederkehr Village,Arkansas,35.4813,-93.7578
Tinsman,Arkansas,33.6291,-92.3533
Birdsong,Arkansas,35.4612,-90.2597
Hagarville,Arkansas,35.5151,-93.3335
Blue Eye,Arkansas,36.4966,-93.3977
Jerome,Arkansas,33.3988,-91.4697
Victoria,Arkansas,35.7574,-90.0602
Gilbert,Arkansas,35.9905,-92.7166
Scott,Arkansas,34.6966,-92.0938
Los Angeles,California,34.1139,-118.4068
San Francisco,California,37.7562,-122.443
San Diego,California,32.8312,-117.1225
Riverside,California,33.9381,-117.3948
Sacramento,California,38.5667,-121.4683
San Jose,California,37.3019,-121.8486
Fresno,California,36.7831,-119.7941
Concord,California,37.9722,-122.0016
Mission Viejo,California,33.6095,-117.655
Bakersfield,California,35.3529,-119.0359
Murrieta,California,33.572,-117.1909
Long Beach,California,33.7981,-118.1675
Oakland,California,37.7903,-122.2165
Indio,California,33.7346,-116.2346
Stockton,California,37.9765,-121.3109
Oxnard,California,34.1963,-119.1815
Modesto,California,37.6374,-121.0028
Anaheim,California,33.839,-117.8572
Victorville,California,34.5277,-117.3536
Lancaster,California,34.6935,-118.1753
Santa Ana,California,33.7366,-117.8819
Santa Rosa,California,38.4458,-122.7067
Santa Clarita,California,34.4175,-118.4964
Antioch,California,37.9789,-121.7958
Irvine,California,33.6772,-117.7738
Chula Vista,California,32.6281,-117.0145
Fremont,California,37.5265,-121.9852
Visalia,California,36.3276,-119.3269
San Bernardino,California,34.1417,-117.2946
Thousand Oaks,California,34.1914,-118.8755
Fontana,California,34.0968,-117.4599
Moreno Valley,California,33.9244,-117.2045
Santa Barbara,California,34.4285,-119.7202
Glendale,California,34.1818,-118.2468
Huntington Beach,California,33.696,-118.0025
Salinas,California,36.6884,-121.6317
Ontario,California,34.0393,-117.6064
Rancho Cucamonga,California,34.1248,-117.5666
Hemet,California,33.7341,-116.9969
Santa Cruz,California,36.9789,-122.0346
Oceanside,California,33.2247,-117.3083
Elk Grove,California,38.416,-121.3842
Vallejo,California,38.1133,-122.2358
Garden Grove,California,33.7787,-117.9601
Corona,California,33.8616,-117.5649
Hayward,California,37.6328,-122.0772
Palmdale,California,34.5944,-118.1057
Sunnyvale,California,37.3836,-122.0256
Pomona,California,34.0585,-117.7626
Escondido,California,33.1347,-117.0722
Fairfield,California,38.2592,-122.0324
Merced,California,37.3057,-120.4778
Torrance,California,33.8346,-118.3417
Roseville,California,38.7703,-121.3196
Pasadena,California,34.1597,-118.139
Santa Maria,California,34.9334,-120.4432
Orange,California,33.8038,-117.8218
Fullerton,California,33.8841,-117.9279
Santa Clara,California,37.3645,-121.968
Simi Valley,California,34.2663,-118.749
Berkeley,California,37.8723,-122.276
Redding,California,40.5698,-122.365
East Los Angeles,California,34.0326,-118.1691
Yuba City,California,39.1357,-121.6381
Gilroy,California,37.0047,-121.5855
Chico,California,39.7575,-121.8152
Seaside,California,36.6224,-121.8191
El Monte,California,34.0739,-118.0291
Carlsbad,California,33.1247,-117.2837
Temecula,California,33.4928,-117.1315
Clovis,California,36.8278,-119.6831
Costa Mesa,California,33.6667,-117.9135
El Centro,California,32.7867,-115.5586
Downey,California,33.9379,-118.1312
Richmond,California,37.9477,-122.339
Jurupa Valley,California,34.001,-117.4705
San Buenaventura,California,34.2741,-119.2314
Inglewood,California,33.9566,-118.3444
Turlock,California,37.5053,-120.8588
Daly City,California,37.6862,-122.4685
West Covina,California,34.0555,-117.9112
San Mateo,California,37.5521,-122.3122
Norwalk,California,33.9069,-118.0829
Rialto,California,34.1174,-117.3894
Manteca,California,37.7927,-121.2264
Arden-Arcade,California,38.6034,-121.381
El Cajon,California,32.8017,-116.9605
Burbank,California,34.1879,-118.3235
Vista,California,33.1896,-117.2386
Vacaville,California,38.359,-121.968
Tracy,California,37.7269,-121.4522
San Marcos,California,33.135,-117.1744
Hesperia,California,34.3975,-117.3147
Compton,California,33.893,-118.2275
Menifee,California,33.6909,-117.1849
Chino,California,33.9836,-117.6654
Hanford,California,36.3274,-119.6549
South Gate,California,33.9448,-118.1926
Carson,California,33.8374,-118.2559
Livermore,California,37.6862,-121.7608
Westminster,California,33.7523,-117.9938
Santa Monica,California,34.0232,-118.4813
San Leandro,California,37.7071,-122.1601
Citrus Heights,California,38.6948,-121.288
Hawthorne,California,33.9146,-118.3476
Redwood City,California,37.5026,-122.2252
Lake Forest,California,33.6606,-117.6712
Napa,California,38.2976,-122.3011
Whittier,California,33.9678,-118.0188
Newport Beach,California,33.6151,-117.8669
Milpitas,California,37.4339,-121.8921
Madera,California,36.9631,-120.0782
Chino Hills,California,33.9508,-117.7253
Alhambra,California,34.084,-118.1355
Mountain View,California,37.4,-122.0796
Buena Park,California,33.8572,-118.0046
Pleasanton,California,37.6663,-121.8805
Folsom,California,38.6668,-121.1422
Tustin,California,33.7309,-117.8106
Lakewood,California,33.8471,-118.1221
Perris,California,33.7899,-117.2233
Alameda,California,37.767,-122.2672
Watsonville,California,36.9206,-121.7706
Porterville,California,36.0644,-119.0338
Upland,California,34.1178,-117.6603
Davis,California,38.5552,-121.7365
Camarillo,California,34.223,-119.0322
Bellflower,California,33.888,-118.1271
San Ramon,California,37.7625,-121.9365
Baldwin Park,California,34.0829,-117.9721
Rancho Cordova,California,38.574,-121.2523
Lodi,California,38.1218,-121.2932
Union City,California,37.603,-122.0187
Apple Valley,California,34.5328,-117.2104
Pittsburg,California,38.0182,-121.8964
Redlands,California,34.0511,-117.1712
El Paso de Robles,California,35.6394,-120.656
Walnut Creek,California,37.9024,-122.0398
Lynwood,California,33.924,-118.2017
Lake Elsinore,California,33.6847,-117.3344
Rocklin,California,38.8075,-121.2488
South San Francisco,California,37.6536,-122.4197
Yorba Linda,California,33.889,-117.7714
Petaluma,California,38.2423,-122.6267
Redondo Beach,California,33.8574,-118.3766
Laguna Niguel,California,33.5275,-117.705
Florence-Graham,California,33.9682,-118.2447
Tulare,California,36.1996,-119.34
Palo Alto,California,37.3913,-122.1468
Dublin,California,37.7161,-121.8963
San Clemente,California,33.4498,-117.6103
Brentwood,California,37.9355,-121.7191
Carmichael,California,38.6337,-121.323
Eastvale,California,33.9617,-117.5802
Castro Valley,California,37.7091,-122.0631
Encinitas,California,33.049,-117.2613
San Luis Obispo,California,35.2669,-120.6691
Pico Rivera,California,33.9902,-118.0888
Montebello,California,34.0155,-118.1108
National City,California,32.6654,-117.0983
Woodland,California,38.6712,-121.75
La Habra,California,33.9278,-117.9513
South Whittier,California,33.9336,-118.0311
Monterey Park,California,34.0497,-118.1326
Gardena,California,33.8944,-118.3073
Cupertino,California,37.3168,-122.0465
La Mesa,California,32.7703,-117.0204
San Rafael,California,37.9905,-122.5222
Santee,California,32.8554,-116.9851
Arcadia,California,34.1342,-118.0373
Huntington Park,California,33.98,-118.2167
Diamond Bar,California,33.9991,-117.8161
Novato,California,38.092,-122.5576
Highland,California,34.1113,-117.1654
Fountain Valley,California,33.7105,-117.9514
Hacienda Heights,California,33.997,-117.9728
Cathedral City,California,33.8363,-116.4642
Delano,California,35.767,-119.2637
Colton,California,34.0538,-117.3254
Arroyo Grande,California,35.1241,-120.5845
Rosemead,California,34.0689,-118.0823
Paramount,California,33.8976,-118.1652
Yucaipa,California,34.0336,-117.0429
West Sacramento,California,38.5557,-121.5504
Palm Desert,California,33.7378,-116.3695
Lompoc,California,34.6618,-120.4714
Glendora,California,34.1449,-117.8468
Placentia,California,33.8807,-117.8553
Beaumont,California,33.9076,-116.9766
Aliso Viejo,California,33.5792,-117.7289
Rowland Heights,California,33.9716,-117.8911
Azusa,California,34.1386,-117.9124
Cerritos,California,33.8677,-118.0686
Oroville,California,39.4999,-121.5634
Poway,California,32.9871,-117.0201
San Jacinto,California,33.797,-116.9916
Newark,California,37.5204,-122.0312
Reedley,California,36.5987,-119.4473
Cypress,California,33.8171,-118.0386
Hollister,California,36.8563,-121.3981
Ceres,California,37.5953,-120.9625
Palm Springs,California,33.8017,-116.5382
Antelope,California,38.7153,-121.361
Lincoln,California,38.8759,-121.2916
La Mirada,California,33.9025,-118.0093
Rancho Santa Margarita,California,33.6318,-117.5989
North Highlands,California,38.6713,-121.3721
Florin,California,38.4832,-121.4042
Covina,California,34.0903,-117.8817
El Dorado Hills,California,38.675,-121.049
Morgan Hill,California,37.1326,-121.6417
Coachella,California,33.6905,-116.143
Altadena,California,34.1928,-118.1345
Selma,California,36.5715,-119.6143
Danville,California,37.8121,-121.9698
Eureka,California,40.7942,-124.1568
Desert Hot Springs,California,33.9551,-116.543
Rohnert Park,California,38.348,-122.6964
Brea,California,33.9254,-117.8656
San Bruno,California,37.6254,-122.4313
Oakley,California,37.9929,-121.6951
Bell Gardens,California,33.9663,-118.155
Campbell,California,37.2802,-121.9538
La Quinta,California,33.6536,-116.2785
Rancho Palos Verdes,California,33.7554,-118.3637
Los Banos,California,37.063,-120.8406
Montclair,California,34.0714,-117.698
San Gabriel,California,34.0948,-118.099
Calexico,California,32.6849,-115.4944
La Puente,California,34.0323,-117.9533
Culver City,California,34.0058,-118.3968
Pacifica,California,37.6112,-122.4781
Martinez,California,37.9985,-122.116
La Presa,California,32.711,-117.0027
Stanton,California,33.8002,-117.9935
Wildomar,California,33.6173,-117.2582
West Hollywood,California,34.0882,-118.3718
Moorpark,California,34.2855,-118.877
Monrovia,California,34.165,-117.9921
Claremont,California,34.1259,-117.7153
French Valley,California,33.5998,-117.1069
San Juan Capistrano,California,33.5009,-117.6544
Foothill Farms,California,38.6867,-121.3475
Temple City,California,34.1021,-118.0579
Bell,California,33.9801,-118.1798
Auburn,California,38.895,-121.0778
Westmont,California,33.9417,-118.3018
Manhattan Beach,California,33.8895,-118.3972
Pleasant Hill,California,37.954,-122.0759
Orangevale,California,38.6881,-121.2209
Oildale,California,35.4249,-119.0279
Menlo Park,California,37.4686,-122.1672
Arcata,California,40.8615,-124.0757
Grass Valley,California,39.2237,-121.0521
Adelanto,California,34.5815,-117.4397
Foster City,California,37.5553,-122.2659
Sonoma,California,38.2902,-122.4598
Beverly Hills,California,34.0786,-118.4021
San Dimas,California,34.1082,-117.809
Dana Point,California,33.4733,-117.6968
Ridgecrest,California,35.6308,-117.6621
Lawndale,California,33.8884,-118.3531
La Verne,California,34.1208,-117.7702
Placerville,California,38.7308,-120.7978
Fallbrook,California,33.3693,-117.2259
Spring Valley,California,32.7316,-116.9766
Banning,California,33.946,-116.8992
Laguna Hills,California,33.592,-117.6992
Orcutt,California,34.8668,-120.4269
Fair Oaks,California,38.6504,-121.2497
San Pablo,California,37.9628,-122.3425
Goleta,California,34.436,-119.8596
Burlingame,California,37.586,-122.3669
Barstow,California,34.8661,-117.0472
Santa Paula,California,34.3521,-119.0698
Los Gatos,California,37.2303,-121.956
South Lake Tahoe,California,38.9393,-119.9828
San Carlos,California,37.4982,-122.268
Saratoga,California,37.2684,-122.0263
Los Altos,California,37.3685,-122.0966
Atascadero,California,35.4827,-120.6858
Walnut,California,34.0334,-117.8593
Suisun City,California,38.2473,-122.009
Ukiah,California,39.1463,-123.2105
Atwater,California,37.3543,-120.5981
East Palo Alto,California,37.4671,-122.1352
Wasco,California,35.5938,-119.3671
Vineyard,California,38.4744,-121.319
Benicia,California,38.0725,-122.1525
Monterey,California,36.5922,-121.8807
Sonora,California,37.9819,-120.3828
Galt,California,38.2693,-121.3
Sanger,California,36.699,-119.5575
Isla Vista,California,34.4144,-119.8581
Temescal Valley,California,33.7581,-117.4677
Imperial Beach,California,32.5689,-117.1184
Ladera Ranch,California,33.5491,-117.6416
Windsor,California,38.5417,-122.8086
Maywood,California,33.9885,-118.1877
Belmont,California,37.5154,-122.2955
Lemon Grove,California,32.7331,-117.0344
Lemoore,California,36.2949,-119.7983
West Whittier-Los Nietos,California,33.9759,-118.0689
Lafayette,California,37.8919,-122.1189
Norco,California,33.9252,-117.5499
Brawley,California,32.9783,-115.5287
Hercules,California,38.0064,-122.2564
Soledad,California,36.4432,-121.3426
Twentynine Palms,California,34.1478,-116.0659
Bay Point,California,38.0329,-121.9614
San Lorenzo,California,37.6737,-122.1349
El Cerrito,California,37.9197,-122.3025
South Pasadena,California,34.1103,-118.1573
Yucca Valley,California,34.1234,-116.4216
Riverbank,California,37.7268,-120.9402
North Tustin,California,33.7644,-117.7945
Lathrop,California,37.809,-121.3131
Loma Linda,California,34.0451,-117.2498
Dinuba,California,36.5453,-119.3987
Ashland,California,37.6942,-122.1159
San Fernando,California,34.2886,-118.4363
Seal Beach,California,33.7542,-118.0714
Calabasas,California,34.1375,-118.6689
Coronado,California,32.664,-117.16
Valinda,California,34.0401,-117.93
Half Moon Bay,California,37.4688,-122.4383
Rosemont,California,38.5477,-121.3553
Oakdale,California,37.7616,-120.847
Cudahy,California,33.9631,-118.183
Winter Gardens,California,32.8376,-116.9268
West Puente Valley,California,34.0512,-117.9681
Granite Bay,California,38.7601,-121.1714
Patterson,California,37.4758,-121.1535
West Rancho Dominguez,California,33.9057,-118.2682
Laguna Beach,California,33.5448,-117.7612
Willowbrook,California,33.9199,-118.2362
Marina,California,36.6812,-121.7895
Corcoran,California,36.0839,-119.561
Millbrae,California,37.5994,-122.4023
Arvin,California,35.1944,-118.8306
West Carson,California,33.8229,-118.2931
Port Hueneme,California,34.1617,-119.2036
Lakeside,California,32.856,-116.904
Bloomington,California,34.0601,-117.4013
Lennox,California,33.938,-118.3586
Rancho San Diego,California,32.7624,-116.9197
Shafter,California,35.4794,-119.2013
Ramona,California,33.0474,-116.8767
Duarte,California,34.161,-117.9504
Rosamond,California,34.8658,-118.2154
Dixon,California,38.4468,-121.8249
South El Monte,California,34.0493,-118.0484
American Canyon,California,38.1796,-122.2583
Prunedale,California,36.8064,-121.6555
Lomita,California,33.7933,-118.3175
Linda,California,39.1241,-121.5421
Agoura Hills,California,34.151,-118.7608
East Hemet,California,33.7301,-116.941
Mead Valley,California,33.8333,-117.2852
La Cañada Flintridge,California,34.2097,-118.2002
South San Jose Hills,California,34.0123,-117.9041
Orinda,California,37.8808,-122.1791
Casa de Oro-Mount Helix,California,32.764,-116.9687
Albany,California,37.8898,-122.3018
La Crescenta-Montrose,California,34.2322,-118.2353
Blythe,California,33.622,-114.6188
Castaic,California,34.4818,-118.6317
Hermosa Beach,California,33.8654,-118.3966
Pinole,California,37.9931,-122.2834
Stevenson Ranch,California,34.3894,-118.5885
Cameron Park,California,38.6737,-120.9872
Red Bluff,California,40.1735,-122.2413
Rancho Mirage,California,33.7634,-116.4271
Chowchilla,California,37.1095,-120.2349
Imperial,California,32.839,-115.5719
Mountain House,California,37.774,-121.5452
Woodcrest,California,33.8789,-117.3686
Moraga,California,37.8439,-122.1225
Valle Vista,California,33.7436,-116.8872
Greenfield,California,36.3232,-121.2451
Santa Fe Springs,California,33.933,-118.0625
Nipomo,California,35.0323,-120.4991
Lakeport,California,39.0392,-122.9218
McKinleyville,California,40.9488,-124.0857
Coalinga,California,36.143,-120.3262
Crescent City,California,41.7727,-124.1902
Live Oak,California,36.986,-121.9804
Rosedale,California,35.3887,-119.2058
Truckee,California,39.3455,-120.1848
Lindsay,California,36.2082,-119.0897
El Segundo,California,33.9169,-118.4021
Bostonia,California,32.8189,-116.9479
Artesia,California,33.8676,-118.0806
Solvang,California,34.5936,-120.1401
Los Osos,California,35.3068,-120.8249
Ripon,California,37.7417,-121.131
Rio Linda,California,38.6876,-121.4418
Stanford,California,37.4252,-122.1674
East San Gabriel,California,34.1198,-118.0807
Vincent,California,34.0982,-117.9238
Discovery Bay,California,37.9071,-121.6076
Cherryland,California,37.6792,-122.1038
Phelan,California,34.4398,-117.5248
Clearlake,California,38.959,-122.633
Fillmore,California,34.3989,-118.9181
Walnut Park,California,33.9683,-118.222
King City,California,36.2166,-121.133
Laguna Woods,California,33.6098,-117.7299
Parkway,California,38.4993,-121.452
East Rancho Dominguez,California,33.895,-118.1956
McFarland,California,35.6781,-119.2414
Parlier,California,36.6087,-119.5434
La Palma,California,33.8504,-118.0406
Avocado Heights,California,34.0381,-118.0026
Pacific Grove,California,36.6192,-121.9255
Kerman,California,36.7249,-120.0625
Coto de Caza,California,33.5961,-117.5862
Susanville,California,40.4205,-120.6129
Tehachapi,California,35.1274,-118.4749
Alamo,California,37.8546,-122.013
Taft,California,35.1267,-119.4242
Livingston,California,37.3875,-120.7248
Alpine,California,32.8439,-116.7585
Lamont,California,35.2651,-118.9159
Lemon Hill,California,38.5172,-121.4573
North Fair Oaks,California,37.4754,-122.2035
North Auburn,California,38.9306,-121.0821
Mill Valley,California,37.9085,-122.5421
Salida,California,37.7145,-121.087
California City,California,35.1578,-117.8721
Hawaiian Gardens,California,33.8303,-118.0728
El Sobrante,California,33.8724,-117.4625
Oak Park,California,34.1849,-118.7669
Sun Village,California,34.5596,-117.9559
Avenal,California,36.0311,-120.1162
Olivehurst,California,39.0817,-121.5549
Big Bear City,California,34.2536,-116.7903
Grover Beach,California,35.1204,-120.6199
Fortuna,California,40.5862,-124.1419
Carpinteria,California,34.3962,-119.5118
Solana Beach,California,32.9942,-117.2575
Palos Verdes Estates,California,33.7871,-118.3976
San Marino,California,34.1224,-118.1132
Lakeland Village,California,33.648,-117.3706
Bonita,California,32.6652,-117.0295
Commerce,California,33.9963,-118.1519
Grand Terrace,California,34.0312,-117.3132
Muscoy,California,34.155,-117.3477
San Anselmo,California,37.9821,-122.5699
Marysville,California,39.1518,-121.5835
Delhi,California,37.4306,-120.7759
Clayton,California,37.9403,-121.9301
Larkspur,California,37.9393,-122.5313
Home Gardens,California,33.8784,-117.5116
Kingsburg,California,36.5245,-119.5602
Emeryville,California,37.8382,-122.2932
Camp Pendleton South,California,33.2284,-117.3791
Healdsburg,California,38.6229,-122.8651
Malibu,California,34.0368,-118.7845
Newman,California,37.3157,-121.0211
Scotts Valley,California,37.0555,-122.0118
View Park-Windsor Hills,California,33.9955,-118.3484
Lake Los Angeles,California,34.6097,-117.8339
Diamond Springs,California,38.692,-120.8391
Mendota,California,36.7555,-120.3776
Tamalpais-Homestead Valley,California,37.8793,-122.5382
Alum Rock,California,37.3695,-121.8241
Magalia,California,39.8228,-121.6078
Signal Hill,California,33.8029,-118.1681
Los Alamitos,California,33.7972,-118.0594
Hillsborough,California,37.5573,-122.3587
Winton,California,37.3854,-120.6173
Canyon Lake,California,33.6885,-117.2621
Piedmont,California,37.8226,-122.23
Rossmoor,California,33.7886,-118.0803
Valley Center,California,33.233,-117.0157
Orange Cove,California,36.6211,-119.3188
Soquel,California,36.9978,-121.9482
La Riviera,California,38.5683,-121.3544
Sierra Madre,California,34.1687,-118.0504
Farmersville,California,36.3053,-119.2083
Anderson,California,40.4497,-122.295
Morro Bay,California,35.3681,-120.8481
Fairview,California,37.676,-122.048
San Diego Country Estates,California,33.0093,-116.7874
Exeter,California,36.294,-119.1459
Oak Hills,California,34.3912,-117.4125
Shasta Lake,California,40.679,-122.3775
Rodeo,California,38.0368,-122.2526
Fort Bragg,California,39.4399,-123.8013
East Whittier,California,33.9244,-117.9887
Citrus,California,34.1161,-117.889
Charter Oak,California,34.1025,-117.8564
Capitola,California,36.9772,-121.9538
Quartz Hill,California,34.6527,-118.2163
Del Aire,California,33.9168,-118.3693
Country Club,California,37.9687,-121.3408
Garden Acres,California,37.9637,-121.2296
Orland,California,39.7461,-122.1856
Fort Irwin,California,35.2476,-116.6834
Madera Acres,California,37.0123,-120.0799
Marina del Rey,California,33.9765,-118.4486
Mentone,California,34.0609,-117.1108
Corte Madera,California,37.9238,-122.5129
Rio Vista,California,38.1763,-121.7025
West Athens,California,33.9235,-118.3033
Rio del Mar,California,36.9607,-121.8807
Waterford,California,37.6429,-120.7553
Blackhawk,California,37.816,-121.9071
Bishop,California,37.3665,-118.3958
Golden Hills,California,35.1512,-118.5024
Gridley,California,39.3622,-121.6971
Cloverdale,California,38.7961,-123.0151
Good Hope,California,33.7706,-117.2772
Calimesa,California,33.9874,-117.0542
Tiburon,California,37.8854,-122.4637
Lake Arrowhead,California,34.2531,-117.1945
Needles,California,34.8164,-114.6189
Crestline,California,34.2486,-117.289
Earlimart,California,35.8824,-119.2715
Corning,California,39.9282,-122.182
Ione,California,38.3613,-120.9422
Los Altos Hills,California,37.3671,-122.139
August,California,37.9797,-121.2625
Spring Valley Lake,California,34.4987,-117.2683
Midway City,California,33.7451,-117.9849
Larkfield-Wikiup,California,38.513,-122.7536
Gonzales,California,36.506,-121.4429
Orosi,California,36.5434,-119.2903
Firebaugh,California,36.8534,-120.4536
Alondra Park,California,33.8885,-118.335
Montecito,California,34.4382,-119.6286
Mammoth Lakes,California,37.6273,-118.99
Westlake Village,California,34.1369,-118.822
Pismo Beach,California,35.1484,-120.6492
South San Gabriel,California,34.0489,-118.0961
Cherry Valley,California,33.9797,-116.9694
Vandenberg Village,California,34.7111,-120.4623
Rolling Hills Estates,California,33.7783,-118.3509
Willits,California,39.4047,-123.3494
Topanga,California,34.0964,-118.6053
Woodlake,California,36.4124,-119.0999
Templeton,California,35.556,-120.7182
Winters,California,38.532,-121.9781
Interlaken,California,36.9505,-121.7363
Guadalupe,California,34.9608,-120.5735
Oroville East,California,39.4947,-121.4866
Boyes Hot Springs,California,38.3126,-122.4888
Sebastopol,California,38.4001,-122.8276
Holtville,California,32.813,-115.378
Piñon Hills,California,34.4438,-117.6214
Escalon,California,37.7912,-120.9982
Joshua Tree,California,34.1236,-116.3128
Plumas Lake,California,38.9924,-121.558
Hughson,California,37.602,-120.866
Jackson,California,38.3485,-120.7728
Gold River,California,38.6268,-121.2488
Fairfax,California,37.9886,-122.5952
Yreka,California,41.7292,-122.6312
Dos Palos,California,36.9854,-120.6336
Oceano,California,35.1019,-120.609
Mount Shasta,California,41.3206,-122.315
Ojai,California,34.4487,-119.2469
Cotati,California,38.3279,-122.7092
Camp Pendleton North,California,33.3148,-117.3162
University of California-Davis,California,38.5374,-121.7576
Huron,California,36.2041,-120.0961
Alta Sierra,California,39.1237,-121.0523
Willows,California,39.5149,-122.1995
Acton,California,34.4956,-118.1857
Nuevo,California,33.8011,-117.1415
Pollock Pines,California,38.7564,-120.5904
Atherton,California,37.4539,-122.2032
Calipatria,California,33.1493,-115.5056
Homeland,California,33.7459,-117.1132
Sausalito,California,37.858,-122.4932
St. Helena,California,38.5063,-122.4682
Rancho Calaveras,California,38.1248,-120.857
Kentfield,California,37.9481,-122.5496
Franklin,California,37.3277,-120.5321
Thermalito,California,39.4909,-121.615
Colusa,California,39.2059,-122.0125
Ben Lomond,California,37.0782,-122.0882
Loomis,California,38.8093,-121.1955
Lemoore Station,California,36.2633,-119.9049
San Martin,California,37.0829,-121.5963
Thousand Palms,California,33.815,-116.3545
Lake Mathews,California,33.825,-117.3683
Fowler,California,36.6243,-119.6737
Desert Palms,California,33.779,-116.293
Bermuda Dunes,California,33.7434,-116.2874
Lucas Valley-Marinwood,California,38.0405,-122.5765
Mecca,California,33.5767,-116.0645
Mira Monte,California,34.4284,-119.2853
Ladera Heights,California,33.9972,-118.374
South Monrovia Island,California,34.1234,-117.9958
Contra Costa Centre,California,37.9261,-122.054
Keyes,California,37.5618,-120.9088
Castroville,California,36.765,-121.7535
La Habra Heights,California,33.9602,-117.951
Aptos,California,36.9912,-121.8934
El Rio,California,34.2452,-119.1568
East Porterville,California,36.0573,-118.9713
Salton City,California,33.2994,-115.9609
East Foothills,California,37.3827,-121.8138
Saranap,California,37.8878,-122.076
East Pasadena,California,34.1377,-118.0776
Eucalyptus Hills,California,32.885,-116.9453
Fruitridge Pocket,California,38.5326,-121.4558
El Granada,California,37.5134,-122.466
Pleasure Point,California,36.9618,-121.9715
Durham,California,39.6232,-121.7875
Lucerne Valley,California,34.4427,-116.9021
Paradise,California,39.7558,-121.6063
Greenacres,California,35.3831,-119.1184
Gustine,California,37.2545,-120.9949
Mayflower Village,California,34.116,-118.0096
Las Flores,California,33.5838,-117.6235
Old Fig Garden,California,36.7989,-119.8051
Silver Lakes,California,34.7519,-117.3431
Villa Park,California,33.818,-117.8104
Highgrove,California,34.0106,-117.3098
West Modesto,California,37.618,-121.0343
Hilmar-Irwin,California,37.4045,-120.8504
Rancho Murieta,California,38.5085,-121.0716
Wilton,California,38.413,-121.2127
Cambria,California,35.5523,-121.0847
Elverta,California,38.7185,-121.4455
Hidden Valley Lake,California,38.8003,-122.5505
Strawberry,California,37.8925,-122.5078
Yosemite Lakes,California,37.1885,-119.7723
Indian Wells,California,33.7036,-116.3396
Williams,California,39.1498,-122.1389
Woodside,California,37.4222,-122.2591
Jamul,California,32.7184,-116.8709
Palermo,California,39.4313,-121.5225
Kensington,California,37.9084,-122.2805
Bear Valley Springs,California,35.1775,-118.646
Garnet,California,33.9179,-116.4796
Big Bear Lake,California,34.2429,-116.8951
Calistoga,California,38.5818,-122.5824
Lake Wildwood,California,39.235,-121.2003
Myrtletown,California,40.7888,-124.1286
Cutler,California,36.5263,-119.2884
Twin Lakes,California,36.9646,-121.9896
Boulder Creek,California,37.1341,-122.1271
Broadmoor,California,37.6914,-122.4811
Bret Harte,California,37.6021,-121.0045
Tara Hills,California,37.9939,-122.3188
Buellton,California,34.6152,-120.1943
Denair,California,37.5262,-120.7994
Guerneville,California,38.5137,-122.9894
Mayfair,California,36.7693,-119.7612
Lincoln Village,California,38.0054,-121.3339
Ford City,California,35.1647,-119.4584
Camino Tassajara,California,37.7909,-121.885
Emerald Lake Hills,California,37.4662,-122.2675
Lake San Marcos,California,33.1196,-117.2088
Brisbane,California,37.6898,-122.402
Oak View,California,34.399,-119.2976
Portola Valley,California,37.3713,-122.2203
Santa Ynez,California,34.6151,-120.0944
Phoenix Lake,California,38.0075,-120.3089
Santa Venetia,California,38.0055,-122.5032
Sunnyside,California,36.7294,-119.6945
Bonsall,California,33.2761,-117.1942
Mountain View Acres,California,34.4976,-117.3472
Planada,California,37.2892,-120.3207
Armona,California,36.3179,-119.7054
McSwain,California,37.3146,-120.5867
Fetters Hot Springs-Agua Caliente,California,38.3274,-122.4871
Pacheco,California,37.9878,-122.07
Copperopolis,California,37.9365,-120.6277
Del Mar,California,32.9633,-117.2627
Humboldt Hill,California,40.7219,-124.1987
Mather,California,38.5489,-121.2832
Ivanhoe,California,36.3886,-119.2202
West Menlo Park,California,37.4338,-122.2034
Harbison Canyon,California,32.8273,-116.8381
Carmel Valley Village,California,36.4824,-121.7198
Lenwood,California,34.8861,-117.1078
Del Monte Forest,California,36.5857,-121.9439
North Richmond,California,37.9642,-122.3711
Running Springs,California,34.2104,-117.1147
Rio Dell,California,40.5022,-124.1103
Empire,California,37.6432,-120.9045
San Joaquin,California,36.6057,-120.1897
Wrightwood,California,34.3495,-117.6299
Burney,California,40.8846,-121.6691
Angels,California,38.0707,-120.5501
North El Monte,California,34.103,-118.0238
Clearlake Riviera,California,38.9512,-122.7207
Vine Hill,California,38.0071,-122.0873
Wheatland,California,39.0287,-121.39
Mojave,California,35.0139,-118.1895
Shingle Springs,California,38.6665,-120.937
Mission Hills,California,34.6861,-120.4404
French Camp,California,37.8802,-121.2803
Carmel-by-the-Sea,California,36.5528,-121.9222
Arbuckle,California,39.0141,-122.061
Brooktrails,California,39.4429,-123.3963
Freedom,California,36.9402,-121.7953
Forestville,California,38.4825,-122.8899
Bystrom,California,37.6199,-120.9827
Agua Dulce,California,34.5044,-118.316
Avalon,California,33.3342,-118.3315
Meadow Vista,California,39.003,-121.0304
Auburn Lake Trails,California,38.8917,-120.9849
Squaw Valley,California,36.6944,-119.2
Felton,California,37.0392,-122.0804
Pajaro,California,36.9016,-121.7417
Tarpey Village,California,36.7941,-119.7012
Heber,California,32.7318,-115.5204
Moss Beach,California,37.5184,-122.5036
Lake of the Pines,California,39.0378,-121.0642
Woodbridge,California,38.1692,-121.3113
Stallion Springs,California,35.0935,-118.6477
Meiners Oaks,California,34.4505,-119.2731
Kelseyville,California,38.9704,-122.8327
Lockeford,California,38.1509,-121.1554
Reliez Valley,California,37.9399,-122.1027
Valley Springs,California,38.1837,-120.815
Granite Hills,California,32.8033,-116.9056
Lake Isabella,California,35.6378,-118.4819
Hidden Meadows,California,33.2236,-117.1198
Rollingwood,California,37.9655,-122.3305
Oakhurst,California,37.3342,-119.6483
Mono Vista,California,38.0124,-120.2697
Riverdale,California,36.4304,-119.8671
San Miguel,California,37.8867,-122.0368
Monte Sereno,California,37.2404,-121.9882
Meadowbrook,California,33.7253,-117.2851
Campo,California,32.6394,-116.4745
Vandenberg AFB,California,34.7483,-120.5182
Coronita,California,33.876,-117.6109
Pine Hills,California,40.7313,-124.1551
Casa Conejo,California,34.1847,-118.9445
Loyola,California,37.3502,-122.098
Kennedy,California,37.929,-121.2457
North Lakeport,California,39.0883,-122.9054
Pixley,California,35.9769,-119.2889
Lake California,California,40.3608,-122.2102
Winchester,California,33.7146,-117.0775
Desert Edge,California,33.9223,-116.4401
Goshen,California,36.3518,-119.421
El Verano,California,38.2975,-122.4915
Seacliff,California,36.977,-121.9176
Esparto,California,38.6934,-122.0241
Crockett,California,38.0519,-122.2201
Cambrian Park,California,37.2563,-121.9287
Cottonwood,California,40.3904,-122.2861
Tipton,California,36.0585,-119.313
Colfax,California,39.0938,-120.9533
Hoopa,California,41.0802,-123.6972
San Antonio Heights,California,34.1571,-117.6592
Terra Bella,California,35.9567,-119.0328
Angwin,California,38.5776,-122.4513
Loma Rica,California,39.3204,-121.4038
Morada,California,38.0386,-121.2456
Amesti,California,36.9583,-121.7805
East Richmond Heights,California,37.945,-122.314
Weaverville,California,40.7488,-122.9274
Nevada City,California,39.2607,-121.0231
Marin City,California,37.8711,-122.5137
San Andreas,California,38.1911,-120.6763
Jamestown,California,37.9574,-120.411
Bonny Doon,California,37.0435,-122.1369
Morongo Valley,California,34.0724,-116.5627
Anza,California,33.5679,-116.6967
Kings Beach,California,39.249,-120.0201
Day Valley,California,37.0255,-121.8559
Strathmore,California,36.1438,-119.0611
Santa Rosa Valley,California,34.2453,-118.9023
Sutter,California,39.1556,-121.7492
Lake Nacimiento,California,35.7309,-120.8702
Yountville,California,38.3963,-122.3671
Hartley,California,38.4203,-121.9521
Las Lomas,California,36.8689,-121.7317
Cutten,California,40.7657,-124.1446
South Oroville,California,39.4767,-121.5439
Channel Islands Beach,California,34.1586,-119.2231
Lucerne,California,39.0697,-122.776
Ridgemark,California,36.8082,-121.3623
Homestead Valley,California,34.273,-116.4145
Oasis,California,33.5275,-116.1261
Montalvin Manor,California,37.9977,-122.33
Kelly Ridge,California,39.5289,-121.4662
East Oakdale,California,37.7854,-120.8007
Bayview,California,40.7654,-124.1787
Penngrove,California,38.3005,-122.6707
Pine Mountain Lake,California,37.8599,-120.1843
Rose Hills,California,34.009,-118.0419
Crest,California,32.8,-116.8671
